cmun,municipality,municipality_1,municipality_2,province,autonomous_community,latitude,longitude,altitude
1001,Alegría-Dulantzi,alegriadulantzi,,Álava,País Vasco,42.84149,-2.513507,561.6857
1002,Amurrio,amurrio,,Álava,País Vasco,43.05265,-3.001022,219.691
1003,Aramaio,aramaio,,Álava,País Vasco,43.054,-2.566,381.8797
1004,Artziniega,artziniega,,Álava,País Vasco,43.1222,-3.128209,196.9808
1006,Armiñón,arminon,,Álava,País Vasco,42.72305,-2.872574,463.5815
1009,Asparrena,asparrena,,Álava,País Vasco,42.89567,-2.321,631.652
1010,Ayala/Aiara,ayala,,Álava,País Vasco,43.08333,-3.063056,300.2789
1011,Baños de Ebro/Mañueta,banosdeebro,,Álava,País Vasco,42.53029,-2.679144,428.0221
1013,Barrundia,barrundia,,Álava,País Vasco,42.91669,-2.491817,555.0674
1014,Berantevilla,berantevilla,,Álava,País Vasco,42.68245,-2.860401,468.8318
1016,Bernedo,bernedo,,Álava,País Vasco,42.62669,-2.497532,713.1542
1017,Campezo/Kanpezu,campezo,,Álava,País Vasco,42.69194,-2.37,742.2458
1018,Zigoitia,zigoitia,,Álava,País Vasco,42.9682,-2.7183,599.7416
1019,Kripan,kripan,,Álava,País Vasco,42.59167,-2.516079,695.0848
1020,Kuartango,kuartango,,Álava,País Vasco,42.87139,-2.885556,572.6608
1021,Elburgo/Burgelu,elburgo,,Álava,País Vasco,42.84956,-2.544762,540.8835
1022,Elciego,elciego,,Álava,País Vasco,42.51507,-2.618277,461.4185
1023,Elvillar/Bilar,elvillar,,Álava,País Vasco,42.5705,-2.544915,592.0
1027,Iruraiz-Gauna,iruraizgauna,,Álava,País Vasco,42.82207,-2.495043,601.8067
1028,Labastida/Bastida,labastida,,Álava,País Vasco,42.59042,-2.793166,547.173
1030,Lagrán,lagran,,Álava,País Vasco,42.6264,-2.58382,749.7421
1031,Laguardia,laguardia,,Álava,País Vasco,42.55428,-2.584237,629.8966
1032,Lanciego/Lantziego,lanciego,,Álava,País Vasco,42.56262,-2.513204,548.5494
1033,Lapuebla de Labarca,lapuebladelabarca,,Álava,País Vasco,42.49467,-2.575167,445.6386
1034,Leza,leza,,Álava,País Vasco,42.56607,-2.633635,573.1453
1036,Laudio/Llodio,laudio,,Álava,País Vasco,43.14333,-2.962985,127.9116
1037,Arraia-Maeztu,arraiamaeztu,,Álava,País Vasco,42.73981,-2.44598,657.7902
1039,Moreda de Álava/Moreda Araba,moredadealava,,Álava,País Vasco,42.52802,-2.40767,463.9432
1041,Navaridas,navaridas,,Álava,País Vasco,42.54517,-2.624532,524.3116
1042,Okondo,okondo,,Álava,País Vasco,43.16222,-3.018889,145.3144
1043,Oyón-Oion,oyonoion,,Álava,País Vasco,42.50614,-2.436965,437.9938
1044,Peñacerrada-Urizaharra,penacerradaurizaharra,,Álava,País Vasco,42.6441,-2.713375,749.8625
1046,Erriberagoitia/Ribera Alta,erriberagoitia,,Álava,País Vasco,42.71577,-2.968477,479.5812
1047,Ribera Baja/Erriberabeitia,riberabaja,,Álava,País Vasco,42.71267,-2.918541,478.6605
1049,Añana,anana,,Álava,País Vasco,42.80235,-2.982607,628.5115
1052,Samaniego,samaniego,,Álava,País Vasco,42.56983,-2.680185,578.5411
1053,San Millán/Donemiliaga,sanmillan,,Álava,País Vasco,42.87472,-2.376111,596.2991
1054,Urkabustaiz,urkabustaiz,,Álava,País Vasco,42.97194,-2.922222,680.2825
1055,Valdegovía/Gaubea,valdegovia,,Álava,País Vasco,42.85,-3.1,574.0443
1056,Harana/Valle de Arana,harana,,Álava,País Vasco,42.75673,-2.321858,831.0966
1057,Villabuena de Álava/Eskuernaga,villabuenadealava,,Álava,País Vasco,42.54872,-2.665456,486.5453
1059,Vitoria-Gasteiz,vitoriagasteiz,,Álava,País Vasco,42.84641,-2.667893,534.3582
1060,Yécora/Iekora,yecora,,Álava,País Vasco,42.5693,-2.470064,688.1754
1061,Zalduondo,zalduondo,,Álava,País Vasco,42.88563,-2.347254,608.8599
1062,Zambrana,zambrana,,Álava,País Vasco,42.65998,-2.879353,455.7371
1063,Zuia,zuia,,Álava,País Vasco,42.98167,-2.844,803.4551
1901,Iruña Oka/Iruña de Oca,irunaoka,,Álava,País Vasco,42.81917,-2.807778,498.6791
1902,Lantarón,lantaron,,Álava,País Vasco,42.75667,-2.987556,615.6439
2001,Abengibre,abengibre,,Albacete,Castilla La Mancha,39.20999,-1.544182,635.9763
2002,Alatoz,alatoz,,Albacete,Castilla La Mancha,39.09464,-1.361155,856.581
2003,Albacete,albacete,,Albacete,Castilla La Mancha,38.99765,-1.86007,685.9573
2004,Albatana,albatana,,Albacete,Castilla La Mancha,38.56977,-1.524207,583.8509
2005,Alborea,alborea,,Albacete,Castilla La Mancha,39.27951,-1.39587,700.4382
2006,Alcadozo,alcadozo,,Albacete,Castilla La Mancha,38.64877,-1.981464,926.3744
2007,Alcalá del Júcar,alcaladeljucar,,Albacete,Castilla La Mancha,39.19346,-1.429671,564.6768
2008,Alcaraz,alcaraz,,Albacete,Castilla La Mancha,38.66966,-2.492647,946.7922
2009,Almansa,almansa,,Albacete,Castilla La Mancha,38.86941,-1.097517,699.0923
2010,Alpera,alpera,,Albacete,Castilla La Mancha,38.95939,-1.231247,855.4849
2011,Ayna,ayna,,Albacete,Castilla La Mancha,38.55318,-2.070846,705.988
2012,Balazote,balazote,,Albacete,Castilla La Mancha,38.88408,-2.150826,774.1191
2013,Balsa de Ves,balsadeves,,Albacete,Castilla La Mancha,39.26442,-1.195344,753.8686
2014,"Ballestero, El",ballesteroel,,Albacete,Castilla La Mancha,38.84107,-2.455432,1022.816
2015,Barrax,barrax,,Albacete,Castilla La Mancha,39.04573,-2.200169,730.8005
2016,Bienservida,bienservida,,Albacete,Castilla La Mancha,38.51517,-2.611526,892.105
2017,Bogarra,bogarra,,Albacete,Castilla La Mancha,38.58138,-2.214221,877.0484
2018,Bonete,bonete,,Albacete,Castilla La Mancha,38.8693,-1.348517,892.0386
2019,"Bonillo, El",bonilloel,,Albacete,Castilla La Mancha,38.95073,-2.539598,1068.339
2020,Carcelén,carcelen,,Albacete,Castilla La Mancha,39.10189,-1.308891,917.2548
2021,Casas de Juan Núñez,casasdejuannunez,,Albacete,Castilla La Mancha,39.10187,-1.557571,708.0665
2022,Casas de Lázaro,casasdelazaro,,Albacete,Castilla La Mancha,38.77105,-2.241862,955.0565
2023,Casas de Ves,casasdeves,,Albacete,Castilla La Mancha,39.2584,-1.335103,705.2325
2024,Casas-Ibáñez,casasibanez,,Albacete,Castilla La Mancha,39.28518,-1.47113,708.7758
2025,Caudete,caudete,,Albacete,Castilla La Mancha,38.70274,-0.9915481,576.1887
2026,Cenizate,cenizate,,Albacete,Castilla La Mancha,39.3043,-1.661456,709.0714
2027,Corral-Rubio,corralrubio,,Albacete,Castilla La Mancha,38.83509,-1.460988,874.6991
2028,Cotillas,cotillas,,Albacete,Castilla La Mancha,38.4311,-2.506876,937.312
2029,Chinchilla de Monte-Aragón,chinchillademontearagon,,Albacete,Castilla La Mancha,38.91862,-1.722758,886.0651
2030,Elche de la Sierra,elchedelasierra,,Albacete,Castilla La Mancha,38.44759,-2.048343,641.3206
2031,Férez,ferez,,Albacete,Castilla La Mancha,38.35604,-2.010168,678.098
2032,Fuensanta,fuensanta,,Albacete,Castilla La Mancha,39.24641,-2.065142,704.071
2033,Fuente-Álamo,fuentealamo,,Albacete,Castilla La Mancha,38.69322,-1.431773,823.3177
2034,Fuentealbilla,fuentealbilla,,Albacete,Castilla La Mancha,39.26686,-1.549186,664.727
2035,"Gineta, La",ginetala,,Albacete,Castilla La Mancha,39.11287,-1.996003,691.8901
2036,Golosalvo,golosalvo,,Albacete,Castilla La Mancha,39.23994,-1.636626,737.8311
2037,Hellín,hellin,,Albacete,Castilla La Mancha,38.51216,-1.70331,571.8438
2038,"Herrera, La",herrerala,,Albacete,Castilla La Mancha,38.96182,-2.126546,715.7388
2039,Higueruela,higueruela,,Albacete,Castilla La Mancha,38.96424,-1.445101,1038.131
2040,Hoya-Gonzalo,hoyagonzalo,,Albacete,Castilla La Mancha,38.96017,-1.554348,935.8157
2041,Jorquera,jorquera,,Albacete,Castilla La Mancha,39.17475,-1.521044,620.2926
2042,Letur,letur,,Albacete,Castilla La Mancha,38.36555,-2.101964,746.7882
2043,Lezuza,lezuza,,Albacete,Castilla La Mancha,38.94902,-2.353775,916.73
2044,Liétor,lietor,,Albacete,Castilla La Mancha,38.5429,-1.952878,671.197
2045,Madrigueras,madrigueras,,Albacete,Castilla La Mancha,39.23705,-1.800167,692.8739
2046,Mahora,mahora,,Albacete,Castilla La Mancha,39.21283,-1.725332,667.1957
2047,Masegoso,masegoso,,Albacete,Castilla La Mancha,38.71841,-2.315899,1109.367
2048,Minaya,minaya,,Albacete,Castilla La Mancha,39.27149,-2.319947,725.5837
2049,Molinicos,molinicos,,Albacete,Castilla La Mancha,38.46796,-2.237843,857.9905
2050,Montalvos,montalvos,,Albacete,Castilla La Mancha,39.16689,-2.027694,710.0
2051,Montealegre del Castillo,montealegredelcastillo,,Albacete,Castilla La Mancha,38.78697,-1.325303,811.8585
2052,Motilleja,motilleja,,Albacete,Castilla La Mancha,39.1806,-1.791874,679.5121
2053,Munera,munera,,Albacete,Castilla La Mancha,39.03984,-2.482528,934.6063
2054,Navas de Jorquera,navasdejorquera,,Albacete,Castilla La Mancha,39.28074,-1.71904,711.0
2055,Nerpio,nerpio,,Albacete,Castilla La Mancha,38.14801,-2.302496,1084.768
2056,Ontur,ontur,,Albacete,Castilla La Mancha,38.6147,-1.498491,656.9244
2057,Ossa de Montiel,ossademontiel,,Albacete,Castilla La Mancha,38.96335,-2.745406,911.2698
2058,Paterna del Madera,paternadelmadera,,Albacete,Castilla La Mancha,38.59725,-2.346145,1136.959
2059,Peñascosa,penascosa,,Albacete,Castilla La Mancha,38.67118,-2.410708,1170.48
2060,Peñas de San Pedro,penasdesanpedro,,Albacete,Castilla La Mancha,38.72722,-2.004189,1023.151
2061,Pétrola,petrola,,Albacete,Castilla La Mancha,38.82572,-1.557605,878.49
2062,Povedilla,povedilla,,Albacete,Castilla La Mancha,38.70169,-2.603873,871.9346
2063,Pozohondo,pozohondo,,Albacete,Castilla La Mancha,38.72114,-1.911805,872.5624
2064,Pozo-Lorente,pozolorente,,Albacete,Castilla La Mancha,39.07682,-1.506532,773.0806
2065,Pozuelo,pozuelo,,Albacete,Castilla La Mancha,38.80923,-2.100707,850.8868
2066,"Recueja, La",recuejala,,Albacete,Castilla La Mancha,39.17558,-1.490451,541.1991
2067,Riópar,riopar,,Albacete,Castilla La Mancha,38.49912,-2.41725,971.0583
2068,Robledo,robledo,,Albacete,Castilla La Mancha,38.75912,-2.448879,1029.824
2069,"Roda, La",rodala,,Albacete,Castilla La Mancha,39.0013,-1.868604,679.9437
2070,Salobre,salobre,,Albacete,Castilla La Mancha,38.59158,-2.551266,924.4268
2071,San Pedro,sanpedro,,Albacete,Castilla La Mancha,38.82642,-2.186141,844.3685
2072,Socovos,socovos,,Albacete,Castilla La Mancha,38.33348,-1.983432,751.4481
2073,Tarazona de la Mancha,tarazonadelamancha,,Albacete,Castilla La Mancha,39.26531,-1.912836,715.6435
2074,Tobarra,tobarra,,Albacete,Castilla La Mancha,38.58844,-1.693783,642.4951
2075,Valdeganga,valdeganga,,Albacete,Castilla La Mancha,39.13523,-1.677004,668.1237
2076,Vianos,vianos,,Albacete,Castilla La Mancha,38.63218,-2.501559,1117.031
2077,Villa de Ves,villadeves,,Albacete,Castilla La Mancha,39.22327,-1.26016,741.5894
2078,Villalgordo del Júcar,villalgordodeljucar,,Albacete,Castilla La Mancha,39.29626,-2.06341,687.8445
2079,Villamalea,villamalea,,Albacete,Castilla La Mancha,39.36189,-1.599296,743.7635
2080,Villapalacios,villapalacios,,Albacete,Castilla La Mancha,38.5746,-2.635532,837.8229
2081,Villarrobledo,villarrobledo,,Albacete,Castilla La Mancha,39.26726,-2.607643,728.5291
2082,Villatoya,villatoya,,Albacete,Castilla La Mancha,39.33326,-1.340224,416.7317
2083,Villavaliente,villavaliente,,Albacete,Castilla La Mancha,39.12596,-1.458606,728.5188
2084,Villaverde de Guadalimar,villaverdedeguadalimar,,Albacete,Castilla La Mancha,38.4555,-2.517869,796.1951
2085,Viveros,viveros,,Albacete,Castilla La Mancha,38.7733,-2.576014,1012.303
2086,Yeste,yeste,,Albacete,Castilla La Mancha,38.36583,-2.318711,862.6873
2901,Pozo Cañada,pozocanada,,Albacete,Castilla La Mancha,38.80128,-1.736837,826.6574
3002,Agost,agost,,Alicante,Valencia,38.44117,-0.6395459,332.424
3003,Agres,agres,,Alicante,Valencia,38.77988,-0.5156772,724.617
3004,Aigües,aigues,,Alicante,Valencia,38.49932,-0.3627366,325.356
3005,Albatera,albatera,,Alicante,Valencia,38.1806,-0.8696246,21.50101
3006,Alcalalí,alcalali,,Alicante,Valencia,38.75568,-0.046652,290.6824
3008,Alcoleja,alcoleja,,Alicante,Valencia,38.67542,-0.3323183,751.6678
3010,Alfafara,alfafara,,Alicante,Valencia,38.77266,-0.5552129,587.1841
3011,"Alfàs del Pi, l'",alfasdelpil',,Alicante,Valencia,38.58055,-0.1032094,96.30521
3012,Algorfa,algorfa,,Alicante,Valencia,38.08587,-0.7957607,29.95276
3013,Algueña,alguena,,Alicante,Valencia,38.33886,-1.003234,536.0125
3015,Almoradí,almoradi,,Alicante,Valencia,38.10963,-0.7920032,17.38357
3016,Almudaina,almudaina,,Alicante,Valencia,38.76115,-0.35386,575.8386
3017,"Alqueria d'Asnar, l'",alqueriad'asnarl',,Alicante,Valencia,38.77235,-0.4256638,358.3362
3018,Altea,altea,,Alicante,Valencia,38.60032,-0.0491708,21.23566
3019,Aspe,aspe,,Alicante,Valencia,38.34857,-0.7694142,230.3877
3020,Balones,balones,,Alicante,Valencia,38.73683,-0.3420584,663.7676
3021,Banyeres de Mariola,banyeresdemariola,,Alicante,Valencia,38.71685,-0.6558753,825.7204
3022,Benasau,benasau,,Alicante,Valencia,38.69114,-0.3437617,695.5562
3023,Beneixama,beneixama,,Alicante,Valencia,38.69995,-0.7661394,595.4329
3024,Benejúzar,benejuzar,,Alicante,Valencia,38.07839,-0.8384452,25.65035
3025,Benferri,benferri,,Alicante,Valencia,38.14063,-0.9632033,54.47756
3026,Beniarbeig,beniarbeig,,Alicante,Valencia,38.82312,-0.0020653,46.27847
3027,Beniardà,beniarda,,Alicante,Valencia,38.68372,-0.2160712,469.4673
3028,Beniarrés,beniarres,,Alicante,Valencia,38.81952,-0.3782794,391.1873
3029,Benigembla,benigembla,,Alicante,Valencia,38.75606,-0.1102239,310.3394
3030,Benidoleig,benidoleig,,Alicante,Valencia,38.79387,-0.0281963,102.7022
3031,Benidorm,benidorm,,Alicante,Valencia,38.53704,-0.1290771,21.19977
3032,Benifallim,benifallim,,Alicante,Valencia,38.66279,-0.4003207,730.8427
3033,Benifato,benifato,,Alicante,Valencia,38.67406,-0.2300378,654.8287
3034,Benijófar,benijofar,,Alicante,Valencia,38.07811,-0.73795,35.03075
3035,Benilloba,benilloba,,Alicante,Valencia,38.70023,-0.3904273,535.0692
3036,Benillup,benillup,,Alicante,Valencia,38.75348,-0.3789057,561.1097
3037,Benimantell,benimantell,,Alicante,Valencia,38.67443,-0.207443,562.9584
3038,Benimarfull,benimarfull,,Alicante,Valencia,38.7751,-0.3934855,427.3933
3039,Benimassot,benimassot,,Alicante,Valencia,38.74907,-0.2923697,729.0436
3040,Benimeli,benimeli,,Alicante,Valencia,38.82294,-0.0417273,95.25533
3041,Benissa,benissa,,Alicante,Valencia,38.71623,0.0533722,253.765
3043,Biar,biar,,Alicante,Valencia,38.6297,-0.7654974,703.2366
3044,Bigastro,bigastro,,Alicante,Valencia,38.06304,-0.8955043,29.8936
3045,Bolulla,bolulla,,Alicante,Valencia,38.67622,-0.1117929,220.4359
3046,Busot,busot,,Alicante,Valencia,38.48483,-0.4172711,331.5273
3048,Callosa d'en Sarrià,callosad'ensarria,,Alicante,Valencia,38.65133,-0.1225342,254.6619
3049,Callosa de Segura,callosadesegura,,Alicante,Valencia,38.12413,-0.8784829,22.56134
3050,"Campello, el",campelloel,,Alicante,Valencia,38.42892,-0.3978871,25.46509
3052,Cañada,canada,,Alicante,Valencia,38.67524,-0.8098581,561.0671
3053,Castalla,castalla,,Alicante,Valencia,38.59519,-0.6722506,685.3792
3054,Castell de Castells,castelldecastells,,Alicante,Valencia,38.75242,-0.1748384,425.5766
3055,Catral,catral,,Alicante,Valencia,38.16095,-0.8014995,11.0
3056,Cocentaina,cocentaina,,Alicante,Valencia,38.74228,-0.4384323,446.2317
3057,Confrides,confrides,,Alicante,Valencia,38.68329,-0.2685593,789.8048
3058,Cox,cox,,Alicante,Valencia,38.1416,-0.8870501,20.62896
3059,Crevillent,crevillent,,Alicante,Valencia,38.24703,-0.803492,120.1649
3060,Quatretondeta,quatretondeta,,Alicante,Valencia,38.72365,-0.3159135,622.546
3061,Daya Nueva,dayanueva,,Alicante,Valencia,38.11316,-0.7592378,8.224919
3062,Daya Vieja,dayavieja,,Alicante,Valencia,38.10484,-0.7387287,6.833565
3063,Dénia,denia,,Alicante,Valencia,38.84043,0.1085751,11.78009
3064,Dolores,dolores,,Alicante,Valencia,38.14058,-0.7692993,9.227216
3066,Elda,elda,,Alicante,Valencia,38.47803,-0.7904639,413.189
3068,Famorca,famorca,,Alicante,Valencia,38.73206,-0.2463927,691.6473
3069,Finestrat,finestrat,,Alicante,Valencia,38.56909,-0.2107335,261.4681
3070,Formentera del Segura,formenteradelsegura,,Alicante,Valencia,38.08562,-0.7453506,10.79573
3071,Gata de Gorgos,gatadegorgos,,Alicante,Valencia,38.77425,0.0812124,85.46293
3072,Gaianes,gaianes,,Alicante,Valencia,38.81155,-0.4103162,414.3354
3073,Gorga,gorga,,Alicante,Valencia,38.72056,-0.3560984,555.8732
3074,Granja de Rocamora,granjaderocamora,,Alicante,Valencia,38.15253,-0.8909073,18.04087
3075,"Castell de Guadalest, el",castelldeguadalestel,,Alicante,Valencia,38.67644,-0.198618,555.7478
3076,Guardamar del Segura,guardamardelsegura,,Alicante,Valencia,38.08615,-0.651254,26.48124
3077,"Fondó de les Neus, el/Hondón de las Nieves",fondodelesneusel,,Alicante,Valencia,38.30504,-0.9341582,493.7399
3078,Hondón de los Frailes,hondondelosfrailes,,Alicante,Valencia,38.27319,-0.9276314,418.041
3079,Ibi,ibi,,Alicante,Valencia,38.62551,-0.5713521,753.7646
3080,Jacarilla,jacarilla,,Alicante,Valencia,38.06133,-0.8686115,27.33402
3081,Xaló,xalo,,Alicante,Valencia,38.73989,-0.0120761,196.9115
3085,Llíber,lliber,,Alicante,Valencia,38.74273,0.0063282,185.6137
3086,Millena,millena,,Alicante,Valencia,38.73058,-0.3638289,634.1902
3088,Monforte del Cid,monfortedelcid,,Alicante,Valencia,38.37923,-0.7292369,223.6606
3090,Mutxamel,mutxamel,,Alicante,Valencia,38.41235,-0.4432408,65.50282
3091,Murla,murla,,Alicante,Valencia,38.76031,-0.0829431,291.5551
3092,Muro de Alcoy,murodealcoy,,Alicante,Valencia,38.78075,-0.4402698,411.4849
3093,Novelda,novelda,,Alicante,Valencia,38.3853,-0.7653857,247.5291
3094,"Nucia, la",nuciala,,Alicante,Valencia,38.61438,-0.1257095,235.7798
3095,Ondara,ondara,,Alicante,Valencia,38.82607,0.0159034,37.3018
3096,Onil,onil,,Alicante,Valencia,38.62606,-0.6731591,676.8312
3097,Orba,orba,,Alicante,Valencia,38.78033,-0.0637978,160.1064
3098,Orxeta,orxeta,,Alicante,Valencia,38.5636,-0.2619973,186.9968
3099,Orihuela,orihuela,,Alicante,Valencia,38.08395,-0.9447829,36.18137
3100,Parcent,parcent,,Alicante,Valencia,38.74553,-0.0661097,289.9498
3101,Pedreguer,pedreguer,,Alicante,Valencia,38.79388,0.0345502,87.95199
3102,Pego,pego,,Alicante,Valencia,38.84324,-0.1175528,83.52785
3103,Penàguila,penaguila,,Alicante,Valencia,38.67942,-0.3590004,689.5314
3104,Petrer,petrer,,Alicante,Valencia,38.47744,-0.7742523,437.8267
3105,"Pinós, el/Pinoso",pinosel,,Alicante,Valencia,38.40112,-1.041577,572.8075
3106,Planes,planes,,Alicante,Valencia,38.7855,-0.344533,444.3655
3107,Polop,polop,,Alicante,Valencia,38.62263,-0.1259112,237.3766
3109,Rafal,rafal,,Alicante,Valencia,38.10402,-0.8499723,16.86083
3110,"Ràfol d'Almúnia, el",rafold'almuniael,,Alicante,Valencia,38.82033,-0.0530159,93.19769
3111,Redován,redovan,,Alicante,Valencia,38.11617,-0.9107296,26.24458
3112,Relleu,relleu,,Alicante,Valencia,38.58733,-0.3110441,439.6355
3113,Rojales,rojales,,Alicante,Valencia,38.08833,-0.7242546,13.9656
3114,"Romana, la",romanala,,Alicante,Valencia,38.38433,-0.9050398,448.9331
3115,Sagra,sagra,,Alicante,Valencia,38.81134,-0.0657266,113.3374
3116,Salinas,salinas,,Alicante,Valencia,38.51891,-0.9121291,491.3814
3117,Sanet y Negrals,sanetynegrals,,Alicante,Valencia,38.81991,-0.0345811,92.4516
3118,San Fulgencio,sanfulgencio,,Alicante,Valencia,38.11422,-0.7179557,7.573623
3119,Sant Joan d'Alacant,santjoand'alacant,,Alicante,Valencia,38.39817,-0.4345329,41.32392
3120,San Miguel de Salinas,sanmigueldesalinas,,Alicante,Valencia,37.97993,-0.7892857,77.87773
3121,Santa Pola,santapola,,Alicante,Valencia,38.1923,-0.5552066,10.0
3123,Sax,sax,,Alicante,Valencia,38.53757,-0.8180652,480.8817
3124,Sella,sella,,Alicante,Valencia,38.60862,-0.2730576,421.4968
3125,Senija,senija,,Alicante,Valencia,38.72786,0.0405763,239.5632
3127,Tàrbena,tarbena,,Alicante,Valencia,38.69572,-0.1037597,573.9403
3128,Teulada,teulada,,Alicante,Valencia,38.72881,0.1035751,181.3972
3129,Tibi,tibi,,Alicante,Valencia,38.52938,-0.5830948,493.401
3130,Tollos,tollos,,Alicante,Valencia,38.75664,-0.2747656,771.4578
3131,Tormos,tormos,,Alicante,Valencia,38.80195,-0.0721342,130.5348
3133,Torrevieja,torrevieja,,Alicante,Valencia,37.97747,-0.6832271,15.69942
3134,"Vall d'Alcalà, la",valld'alcalala,,Alicante,Valencia,38.79445,-0.2527778,641.0916
3135,"Vall d'Ebo, la",valld'ebola,,Alicante,Valencia,38.80732,-0.1570321,381.5167
3137,"Vall de Laguar, la",valldelaguarla,,Alicante,Valencia,38.77628,-0.1310217,548.257
3138,"Verger, el",vergerel,,Alicante,Valencia,38.33109,-0.5109846,10.94339
3140,Villena,villena,,Alicante,Valencia,38.63634,-0.8661389,522.7245
3901,"Poblets, els",pobletsels,,Alicante,Valencia,38.85391,0.018325,12.50598
3902,Pilar de la Horadada,pilardelahoradada,,Alicante,Valencia,37.86538,-0.7925081,32.33976
3903,"Montesinos, Los",montesinoslos,,Alicante,Valencia,38.02732,-0.743438,21.59749
3904,San Isidro,sanisidro,,Alicante,Valencia,38.1702,-0.8401969,10.8566
4001,Abla,abla,,Almería,Andalucía,37.14114,-2.780104,871.1684
4002,Abrucena,abrucena,,Almería,Andalucía,37.13305,-2.797098,976.9387
4003,Adra,adra,,Almería,Andalucía,36.74807,-3.022522,10.97898
4004,Albanchez,albanchez,,Almería,Andalucía,37.2871,-2.181163,481.3123
4005,Alboloduy,alboloduy,,Almería,Andalucía,37.03319,-2.62175,388.4346
4006,Albox,albox,,Almería,Andalucía,37.38979,-2.147483,426.4268
4007,Alcolea,alcolea,,Almería,Andalucía,36.97449,-2.961038,744.6956
4008,Alcóntar,alcontar,,Almería,Andalucía,37.33585,-2.596944,955.1331
4009,Alcudia de Monteagud,alcudiademonteagud,,Almería,Andalucía,37.23598,-2.266174,1018.354
4010,Alhabia,alhabia,,Almería,Andalucía,36.9893,-2.587667,288.056
4011,Alhama de Almería,alhamadealmeria,,Almería,Andalucía,36.95742,-2.570075,523.1963
4012,Alicún,alicun,,Almería,Andalucía,36.9663,-2.601994,420.4872
4013,Almería,almeria,,Almería,Andalucía,36.84016,-2.467922,27.00703
4014,Almócita,almocita,,Almería,Andalucía,37.00236,-2.790071,831.1343
4015,Alsodux,alsodux,,Almería,Andalucía,37.002,-2.594579,312.0394
4016,Antas,antas,,Almería,Andalucía,37.24516,-1.917543,107.2613
4017,Arboleas,arboleas,,Almería,Andalucía,37.35025,-2.074867,288.0828
4018,Armuña de Almanzora,armunadealmanzora,,Almería,Andalucía,37.34969,-2.411396,625.5285
4019,Bacares,bacares,,Almería,Andalucía,37.26083,-2.454761,1202.631
4020,Bayárcal,bayarcal,,Almería,Andalucía,37.03116,-2.996469,1271.166
4021,Bayarque,bayarque,,Almería,Andalucía,37.33091,-2.43566,816.2208
4022,Bédar,bedar,,Almería,Andalucía,37.18964,-1.981898,391.56
4023,Beires,beires,,Almería,Andalucía,37.012,-2.790928,919.2347
4024,Benahadux,benahadux,,Almería,Andalucía,36.92587,-2.455683,113.9746
4026,Benitagla,benitagla,,Almería,Andalucía,37.23124,-2.239107,945.0856
4027,Benizalón,benizalon,,Almería,Andalucía,37.21175,-2.241685,933.7475
4028,Bentarique,bentarique,,Almería,Andalucía,36.98652,-2.61942,319.8048
4029,Berja,berja,,Almería,Andalucía,36.84644,-2.949425,340.7863
4030,Canjáyar,canjayar,,Almería,Andalucía,37.00973,-2.739681,607.9745
4031,Cantoria,cantoria,,Almería,Andalucía,37.35259,-2.193626,388.6553
4032,Carboneras,carboneras,,Almería,Andalucía,36.99659,-1.895012,6.721787
4033,Castro de Filabres,castrodefilabres,,Almería,Andalucía,37.18464,-2.439524,943.7071
4034,Cóbdar,cobdar,,Almería,Andalucía,37.26199,-2.210223,606.9962
4035,Cuevas del Almanzora,cuevasdelalmanzora,,Almería,Andalucía,37.29709,-1.881476,97.29103
4036,Chercos,chercos,,Almería,Andalucía,37.26633,-2.257897,789.6791
4037,Chirivel,chirivel,,Almería,Andalucía,37.5956,-2.264839,1039.713
4038,Dalías,dalias,,Almería,Andalucía,36.82121,-2.870697,415.9644
4041,Enix,enix,,Almería,Andalucía,36.87704,-2.602107,720.6339
4043,Felix,felix,,Almería,Andalucía,36.86892,-2.657921,822.4271
4044,Fines,fines,,Almería,Andalucía,37.35888,-2.262964,448.7018
4045,Fiñana,finana,,Almería,Andalucía,37.17101,-2.840678,950.4163
4046,Fondón,fondon,,Almería,Andalucía,36.97942,-2.858356,858.4697
4047,Gádor,gador,,Almería,Andalucía,36.95393,-2.492936,169.0004
4048,"Gallardos, Los",gallardoslos,,Almería,Andalucía,37.16948,-1.940099,113.9905
4049,Garrucha,garrucha,,Almería,Andalucía,37.17925,-1.821901,2.56615
4050,Gérgal,gergal,,Almería,Andalucía,37.1207,-2.538305,750.5009
4051,Huécija,huecija,,Almería,Andalucía,36.96788,-2.611436,410.0447
4052,Huércal de Almería,huercaldealmeria,,Almería,Andalucía,36.88415,-2.435978,72.52909
4053,Huércal-Overa,huercalovera,,Almería,Andalucía,37.39063,-1.943684,284.6117
4054,Íllar,illar,,Almería,Andalucía,36.98504,-2.639302,428.1185
4055,Instinción,instincion,,Almería,Andalucía,36.99316,-2.659945,434.57
4056,Laroya,laroya,,Almería,Andalucía,37.29667,-2.329601,854.0873
4057,Láujar de Andarax,laujardeandarax,,Almería,Andalucía,36.99384,-2.88922,910.9894
4058,Líjar,lijar,,Almería,Andalucía,37.29527,-2.219928,593.4965
4059,Lubrín,lubrin,,Almería,Andalucía,37.21585,-2.067055,521.5203
4060,Lucainena de las Torres,lucainenadelastorres,,Almería,Andalucía,37.04179,-2.200706,533.8752
4061,Lúcar,lucar,,Almería,Andalucía,37.39965,-2.427074,901.753
4062,Macael,macael,,Almería,Andalucía,37.33229,-2.304892,538.7327
4063,María,maria,,Almería,Andalucía,37.7111,-2.165795,1196.435
4064,Mojácar,mojacar,,Almería,Andalucía,37.13995,-1.851328,165.0597
4065,Nacimiento,nacimiento,,Almería,Andalucía,37.10497,-2.64774,596.8992
4066,Níjar,nijar,,Almería,Andalucía,36.96576,-2.20651,353.1248
4067,Ohanes,ohanes,,Almería,Andalucía,37.03723,-2.745168,953.4253
4068,Olula de Castro,oluladecastro,,Almería,Andalucía,37.17611,-2.476297,1054.839
4069,Olula del Río,oluladelrio,,Almería,Andalucía,37.35212,-2.298121,486.5961
4070,Oria,oria,,Almería,Andalucía,37.48503,-2.295018,1038.982
4071,Padules,padules,,Almería,Andalucía,36.99884,-2.773482,745.1029
4072,Partaloa,partaloa,,Almería,Andalucía,37.40604,-2.226434,548.585
4073,Paterna del Río,paternadelrio,,Almería,Andalucía,37.02088,-2.953087,1201.81
4074,Pechina,pechina,,Almería,Andalucía,36.91667,-2.440625,107.5108
4075,Pulpí,pulpi,,Almería,Andalucía,37.41183,-1.745502,194.9947
4076,Purchena,purchena,,Almería,Andalucía,37.34855,-2.36155,540.9984
4077,Rágol,ragol,,Almería,Andalucía,36.99564,-2.680989,404.8323
4078,Rioja,rioja,,Almería,Andalucía,36.94406,-2.462424,133.2092
4079,Roquetas de Mar,roquetasdemar,,Almería,Andalucía,36.76427,-2.614935,11.84886
4080,Santa Cruz de Marchena,santacruzdemarchena,,Almería,Andalucía,37.0172,-2.603768,328.9739
4081,Santa Fe de Mondújar,santafedemondujar,,Almería,Andalucía,36.97506,-2.530279,210.5975
4082,Senés,senes,,Almería,Andalucía,37.20457,-2.347544,1007.387
4083,Serón,seron,,Almería,Andalucía,37.34361,-2.508077,800.137
4084,Sierro,sierro,,Almería,Andalucía,37.32348,-2.398526,721.0729
4085,Somontín,somontin,,Almería,Andalucía,37.39139,-2.389127,816.8105
4086,Sorbas,sorbas,,Almería,Andalucía,37.09841,-2.126351,391.5779
4087,Suflí,sufli,,Almería,Andalucía,37.3382,-2.389523,636.8499
4088,Tabernas,tabernas,,Almería,Andalucía,37.04945,-2.392681,405.9641
4089,Taberno,taberno,,Almería,Andalucía,37.46729,-2.076205,702.8022
4090,Tahal,tahal,,Almería,Andalucía,37.22803,-2.28497,1008.582
4091,Terque,terque,,Almería,Andalucía,36.98359,-2.597233,282.4351
4092,Tíjola,tijola,,Almería,Andalucía,37.34551,-2.439434,685.379
4093,Turre,turre,,Almería,Andalucía,37.15225,-1.894899,49.41454
4094,Turrillas,turrillas,,Almería,Andalucía,37.03019,-2.264096,840.3381
4095,Uleila del Campo,uleiladelcampo,,Almería,Andalucía,37.18548,-2.203801,629.6137
4096,Urrácal,urracal,,Almería,Andalucía,37.39732,-2.36507,744.7553
4097,Velefique,velefique,,Almería,Andalucía,37.19375,-2.403687,937.5716
4098,Vélez-Blanco,velezblanco,,Almería,Andalucía,37.69095,-2.095682,1072.432
4099,Vélez-Rubio,velezrubio,,Almería,Andalucía,37.64802,-2.074232,842.2859
4100,Vera,vera,,Almería,Andalucía,37.24686,-1.868238,102.0657
4101,Viator,viator,,Almería,Andalucía,36.88963,-2.426541,74.79173
4102,Vícar,vicar,,Almería,Andalucía,36.83145,-2.642515,276.2602
4103,Zurgena,zurgena,,Almería,Andalucía,37.34265,-2.039607,248.1582
4901,"Tres Villas, Las",tresvillaslas,,Almería,Andalucía,37.13334,-2.7,693.0934
4902,"Ejido, El",ejidoel,,Almería,Andalucía,36.77506,-2.812738,80.0
4903,"Mojonera, La",mojonerala,,Almería,Andalucía,36.75254,-2.688159,41.25403
5001,Adanero,adanero,,Ávila,Castilla León,40.94591,-4.606659,905.2096
5002,"Adrada, La",adradala,,Ávila,Castilla León,40.29935,-4.634857,622.7286
5005,Albornos,albornos,,Ávila,Castilla León,40.83842,-4.881355,909.7402
5007,Aldeanueva de Santa Cruz,aldeanuevadesantacruz,,Ávila,Castilla León,40.38176,-5.419435,1166.277
5008,Aldeaseca,aldeaseca,,Ávila,Castilla León,41.04952,-4.817433,861.7283
5010,"Aldehuela, La",aldehuelala,,Ávila,Castilla León,40.79458,-4.763939,959.1974
5012,Amavida,amavida,,Ávila,Castilla León,40.57338,-5.066842,1175.522
5013,"Arenal, El",arenalel,,Ávila,Castilla León,40.26487,-5.087197,890.2292
5014,Arenas de San Pedro,arenasdesanpedro,,Ávila,Castilla León,40.20872,-5.091141,514.0571
5015,Arevalillo,arevalillo,,Ávila,Castilla León,40.58731,-5.370576,1137.772
5016,Arévalo,arevalo,,Ávila,Castilla León,41.06443,-4.721681,826.179
5017,Aveinte,aveinte,,Ávila,Castilla León,40.78237,-4.837343,1000.345
5018,Avellaneda,avellaneda,,Ávila,Castilla León,40.38853,-5.388019,1351.883
5019,Ávila,avila,,Ávila,Castilla León,40.65642,-4.700323,1129.841
5021,"Barco de Ávila, El",barcodeavilael,,Ávila,Castilla León,40.35711,-5.523521,1018.091
5022,"Barraco, El",barracoel,,Ávila,Castilla León,40.47881,-4.638284,1007.118
5023,Barromán,barroman,,Ávila,Castilla León,41.06509,-4.931392,795.3719
5024,Becedas,becedas,,Ávila,Castilla León,40.40503,-5.634871,1100.157
5025,Becedillas,becedillas,,Ávila,Castilla León,40.53734,-5.324924,1055.372
5026,Bercial de Zapardiel,bercialdezapardiel,,Ávila,Castilla León,41.04642,-4.969301,806.9874
5027,"Berlanas, Las",berlanaslas,,Ávila,Castilla León,40.80299,-4.760686,947.4949
5029,Bernuy-Zapardiel,bernuyzapardiel,,Ávila,Castilla León,40.97598,-4.943945,865.666
5030,Berrocalejo de Aragona,berrocalejodearagona,,Ávila,Castilla León,40.69409,-4.594394,1093.834
5033,Blascomillán,blascomillan,,Ávila,Castilla León,40.80138,-5.088691,949.7968
5034,Blasconuño de Matacabras,blasconunodematacabras,,Ávila,Castilla León,41.1234,-4.990178,786.0962
5035,Blascosancho,blascosancho,,Ávila,Castilla León,40.87781,-4.635879,904.3203
5036,"Bohodón, El",bohodonel,,Ávila,Castilla León,40.91633,-4.730068,884.0
5037,Bohoyo,bohoyo,,Ávila,Castilla León,40.31496,-5.441185,1152.302
5038,Bonilla de la Sierra,bonilladelasierra,,Ávila,Castilla León,40.53089,-5.264956,1078.679
5039,Brabos,brabos,,Ávila,Castilla León,40.77847,-4.937897,981.4635
5040,Bularros,bularros,,Ávila,Castilla León,40.72449,-4.865047,1169.908
5041,Burgohondo,burgohondo,,Ávila,Castilla León,40.41368,-4.786215,841.5716
5042,Cabezas de Alambre,cabezasdealambre,,Ávila,Castilla León,40.9404,-4.842389,889.5198
5043,Cabezas del Pozo,cabezasdelpozo,,Ávila,Castilla León,41.00153,-4.955734,844.806
5044,Cabezas del Villar,cabezasdelvillar,,Ávila,Castilla León,40.71527,-5.209755,1047.323
5045,Cabizuela,cabizuela,,Ávila,Castilla León,40.90104,-4.800335,880.9836
5046,Canales,canales,,Ávila,Castilla León,41.00328,-4.900349,856.6454
5047,Candeleda,candeleda,,Ávila,Castilla León,40.15509,-5.239784,432.1873
5048,Cantiveros,cantiveros,,Ávila,Castilla León,40.9527,-4.954445,878.133
5049,Cardeñosa,cardenosa,,Ávila,Castilla León,40.74177,-4.745263,1106.686
5051,"Carrera, La",carrerala,,Ávila,Castilla León,40.34768,-5.554624,1055.56
5052,Casas del Puerto,casasdelpuerto,,Ávila,Castilla León,40.52906,-5.198162,1181.79
5053,Casasola,casasola,,Ávila,Castilla León,40.66874,-4.826726,1316.782
5054,Casavieja,casavieja,,Ávila,Castilla León,40.28105,-4.766778,560.0256
5055,Casillas,casillas,,Ávila,Castilla León,40.32428,-4.57237,1033.86
5056,Castellanos de Zapardiel,castellanosdezapardiel,,Ávila,Castilla León,41.08524,-4.909803,784.2825
5057,Cebreros,cebreros,,Ávila,Castilla León,40.45507,-4.464714,762.6259
5058,Cepeda la Mora,cepedalamora,,Ávila,Castilla León,40.45761,-5.048178,1496.214
5059,Cillán,cillan,,Ávila,Castilla León,40.70498,-4.978228,1213.872
5060,Cisla,cisla,,Ávila,Castilla León,40.96485,-5.012189,849.4051
5061,"Colilla, La",colillala,,Ávila,Castilla León,40.6473,-4.766521,1137.412
5062,Collado de Contreras,colladodecontreras,,Ávila,Castilla León,40.88665,-4.927863,916.2794
5063,Collado del Mirón,colladodelmiron,,Ávila,Castilla León,40.5528,-5.353886,1166.182
5064,Constanzana,constanzana,,Ávila,Castilla León,40.93854,-4.874399,890.7895
5065,Crespos,crespos,,Ávila,Castilla León,40.87341,-4.969728,924.7823
5066,Cuevas del Valle,cuevasdelvalle,,Ávila,Castilla León,40.29244,-5.010546,850.9416
5067,Chamartín,chamartin,,Ávila,Castilla León,40.70156,-4.958119,1200.419
5069,Donjimeno,donjimeno,,Ávila,Castilla León,40.95966,-4.845067,885.1403
5070,Donvidas,donvidas,,Ávila,Castilla León,41.08922,-4.807941,863.8016
5072,Espinosa de los Caballeros,espinosadeloscaballeros,,Ávila,Castilla León,41.00935,-4.650817,859.3159
5073,Flores de Ávila,floresdeavila,,Ávila,Castilla León,40.93462,-5.078152,894.5298
5074,Fontiveros,fontiveros,,Ávila,Castilla León,40.9306,-4.967885,883.9694
5075,Fresnedilla,fresnedilla,,Ávila,Castilla León,40.23157,-4.621687,622.42
5076,"Fresno, El",fresnoel,,Ávila,Castilla León,40.61371,-4.757426,1077.998
5077,Fuente el Saúz,fuenteelsauz,,Ávila,Castilla León,40.97907,-4.910458,872.8679
5078,Fuentes de Año,fuentesdeano,,Ávila,Castilla León,41.01748,-4.897614,825.9651
5079,Gallegos de Altamiros,gallegosdealtamiros,,Ávila,Castilla León,40.70929,-4.899144,1243.297
5080,Gallegos de Sobrinos,gallegosdesobrinos,,Ávila,Castilla León,40.71639,-5.111902,1165.116
5081,Garganta del Villar,gargantadelvillar,,Ávila,Castilla León,40.45007,-5.105528,1468.859
5082,Gavilanes,gavilanes,,Ávila,Castilla León,40.27752,-4.851113,666.3435
5083,Gemuño,gemuno,,Ávila,Castilla León,40.59291,-4.782099,1103.707
5084,Gilbuena,gilbuena,,Ávila,Castilla León,40.41522,-5.605305,1046.664
5085,Gil García,gilgarcia,,Ávila,Castilla León,40.29817,-5.593304,1149.134
5086,Gimialcón,gimialcon,,Ávila,Castilla León,40.87731,-5.122354,949.9352
5087,Gotarrendura,gotarrendura,,Ávila,Castilla León,40.82674,-4.739214,931.7262
5088,Grandes y San Martín,grandesysanmartin,,Ávila,Castilla León,40.75497,-4.957851,1004.375
5089,Guisando,guisando,,Ávila,Castilla León,40.22166,-5.139702,760.2384
5090,Gutierre-Muñoz,gutierremunoz,,Ávila,Castilla León,40.98325,-4.638578,885.0555
5092,Hernansancho,hernansancho,,Ávila,Castilla León,40.85752,-4.729424,907.3092
5093,Herradón de Pinares,herradondepinares,,Ávila,Castilla León,40.57639,-4.531389,1339.181
5094,Herreros de Suso,herrerosdesuso,,Ávila,Castilla León,40.80199,-5.038302,1014.149
5095,Higuera de las Dueñas,higueradelasduenas,,Ávila,Castilla León,40.23775,-4.601235,636.0223
5096,"Hija de Dios, La",hijadediosla,,Ávila,Castilla León,40.53144,-4.965749,1190.105
5097,"Horcajada, La",horcajadala,,Ávila,Castilla León,40.43745,-5.466582,1013.886
5099,Horcajo de las Torres,horcajodelastorres,,Ávila,Castilla León,41.0651,-5.090805,817.9778
5100,"Hornillo, El",hornilloel,,Ávila,Castilla León,40.24966,-5.104175,750.8702
5101,Hoyocasero,hoyocasero,,Ávila,Castilla León,40.39886,-4.975904,1340.283
5102,"Hoyo de Pinares, El",hoyodepinaresel,,Ávila,Castilla León,40.50175,-4.422359,850.6945
5103,Hoyorredondo,hoyorredondo,,Ávila,Castilla León,40.46219,-5.409976,1041.056
5104,Hoyos del Collado,hoyosdelcollado,,Ávila,Castilla León,40.35938,-5.201206,1496.277
5105,Hoyos del Espino,hoyosdelespino,,Ávila,Castilla León,40.35726,-5.173525,1476.058
5106,Hoyos de Miguel Muñoz,hoyosdemiguelmunoz,,Ávila,Castilla León,40.39286,-5.06712,1537.814
5107,Hurtumpascual,hurtumpascual,,Ávila,Castilla León,40.69209,-5.112507,1170.533
5108,Junciana,junciana,,Ávila,Castilla León,40.41014,-5.557674,996.5219
5109,Langa,langa,,Ávila,Castilla León,41.00771,-4.859519,867.0062
5110,Lanzahíta,lanzahita,,Ávila,Castilla León,40.20398,-4.937142,452.3451
5112,"Losar del Barco, El",losardelbarcoel,,Ávila,Castilla León,40.39238,-5.539316,1011.311
5113,"Llanos de Tormes, Los",llanosdetormeslos,,Ávila,Castilla León,40.32849,-5.500204,1051.062
5114,Madrigal de las Altas Torres,madrigaldelasaltastorres,,Ávila,Castilla León,41.08944,-4.998767,811.4847
5115,Maello,maello,,Ávila,Castilla León,40.81118,-4.5088,1031.561
5116,Malpartida de Corneja,malpartidadecorneja,,Ávila,Castilla León,40.52113,-5.351212,1023.512
5117,Mamblas,mamblas,,Ávila,Castilla León,41.01953,-5.011209,820.2225
5118,Mancera de Arriba,manceradearriba,,Ávila,Castilla León,40.79102,-5.147208,938.9207
5120,Marlín,marlin,,Ávila,Castilla León,40.71137,-4.829782,1214.861
5121,Martiherrero,martiherrero,,Ávila,Castilla León,40.67412,-4.781778,1228.818
5122,Martínez,martinez,,Ávila,Castilla León,40.63086,-5.348361,1100.179
5123,Mediana de Voltoya,medianadevoltoya,,Ávila,Castilla León,40.7007,-4.563919,1112.355
5124,Medinilla,medinilla,,Ávila,Castilla León,40.43935,-5.617625,1066.206
5125,Mengamuñoz,mengamunoz,,Ávila,Castilla León,40.50863,-5.005374,1348.081
5126,Mesegar de Corneja,mesegardecorneja,,Ávila,Castilla León,40.50275,-5.301532,1022.489
5127,Mijares,mijares,,Ávila,Castilla León,40.29747,-4.836677,864.0565
5128,Mingorría,mingorria,,Ávila,Castilla León,40.75072,-4.665422,1034.813
5129,"Mirón, El",mironel,,Ávila,Castilla León,40.53179,-5.405205,1261.807
5130,Mironcillo,mironcillo,,Ávila,Castilla León,40.55497,-4.825576,1119.956
5131,Mirueña de los Infanzones,miruenadelosinfanzones,,Ávila,Castilla León,40.73749,-5.090713,1132.032
5132,Mombeltrán,mombeltran,,Ávila,Castilla León,40.25992,-5.01777,638.0334
5133,Monsalupe,monsalupe,,Ávila,Castilla León,40.76863,-4.781026,1001.826
5134,Moraleja de Matacabras,moralejadematacabras,,Ávila,Castilla León,41.10721,-4.957326,784.5509
5135,Muñana,munana,,Ávila,Castilla León,40.59051,-5.014978,1166.34
5136,Muñico,munico,,Ávila,Castilla León,40.70657,-5.026659,1088.301
5138,Muñogalindo,munogalindo,,Ávila,Castilla León,40.6028,-4.900547,1126.354
5139,Muñogrande,munogrande,,Ávila,Castilla León,40.82127,-4.922052,945.0131
5140,Muñomer del Peco,munomerdelpeco,,Ávila,Castilla León,40.85851,-4.880385,897.2045
5141,Muñopepe,munopepe,,Ávila,Castilla León,40.63546,-4.818228,1136.208
5142,Muñosancho,munosancho,,Ávila,Castilla León,40.92184,-5.035893,904.1495
5143,Muñotello,munotello,,Ávila,Castilla León,40.54302,-5.040777,1153.327
5144,Narrillos del Álamo,narrillosdelalamo,,Ávila,Castilla León,40.56697,-5.466862,1119.065
5145,Narrillos del Rebollar,narrillosdelrebollar,,Ávila,Castilla León,40.66433,-4.964759,1393.928
5147,Narros del Castillo,narrosdelcastillo,,Ávila,Castilla León,40.85886,-5.059597,955.416
5148,Narros del Puerto,narrosdelpuerto,,Ávila,Castilla León,40.54162,-4.991971,1150.127
5149,Narros de Saldueña,narrosdesalduena,,Ávila,Castilla León,40.87524,-4.869534,899.7995
5151,Navacepedilla de Corneja,navacepedilladecorneja,,Ávila,Castilla León,40.48594,-5.184513,1254.679
5152,Nava de Arévalo,navadearevalo,,Ávila,Castilla León,40.97843,-4.775988,867.2231
5153,Nava del Barco,navadelbarco,,Ávila,Castilla León,40.29252,-5.540213,1143.579
5154,Navadijos,navadijos,,Ávila,Castilla León,40.42566,-5.08356,1522.013
5155,Navaescurial,navaescurial,,Ávila,Castilla León,40.47199,-5.277838,1204.329
5156,Navahondilla,navahondilla,,Ávila,Castilla León,40.32642,-4.495955,722.1689
5157,Navalacruz,navalacruz,,Ávila,Castilla León,40.44016,-4.932515,1242.845
5158,Navalmoral,navalmoral,,Ávila,Castilla León,40.45965,-4.7686,1059.723
5159,Navalonguilla,navalonguilla,,Ávila,Castilla León,40.27827,-5.501873,1166.513
5160,Navalosa,navalosa,,Ávila,Castilla León,40.40134,-4.931455,1302.457
5161,Navalperal de Pinares,navalperaldepinares,,Ávila,Castilla León,40.59454,-4.410842,1276.434
5162,Navalperal de Tormes,navalperaldetormes,,Ávila,Castilla León,40.35288,-5.300556,1301.761
5163,Navaluenga,navaluenga,,Ávila,Castilla León,40.41096,-4.707685,761.1091
5164,Navaquesera,navaquesera,,Ávila,Castilla León,40.42503,-4.908706,1510.378
5165,Navarredonda de Gredos,navarredondadegredos,,Ávila,Castilla León,40.36239,-5.13352,1533.715
5166,Navarredondilla,navarredondilla,,Ávila,Castilla León,40.45349,-4.821207,1133.272
5167,Navarrevisca,navarrevisca,,Ávila,Castilla León,40.36426,-4.89544,1125.35
5168,"Navas del Marqués, Las",navasdelmarqueslas,,Ávila,Castilla León,40.60316,-4.326336,1301.798
5169,Navatalgordo,navatalgordo,,Ávila,Castilla León,40.41558,-4.872152,1277.847
5170,Navatejares,navatejares,,Ávila,Castilla León,40.33571,-5.530873,1045.835
5171,Neila de San Miguel,neiladesanmiguel,,Ávila,Castilla León,40.42363,-5.651734,1163.344
5172,Niharra,niharra,,Ávila,Castilla León,40.5894,-4.839691,1092.125
5173,Ojos-Albos,ojosalbos,,Ávila,Castilla León,40.7065,-4.51648,1228.249
5174,Orbita,orbita,,Ávila,Castilla León,40.99851,-4.647501,868.4173
5175,"Oso, El",osoel,,Ávila,Castilla León,40.84169,-4.770429,896.0026
5176,Padiernos,padiernos,,Ávila,Castilla León,40.6211,-4.845123,1106.0
5177,Pajares de Adaja,pajaresdeadaja,,Ávila,Castilla León,40.92365,-4.64045,881.6708
5178,Palacios de Goda,palaciosdegoda,,Ávila,Castilla León,41.1171,-4.783861,820.0026
5179,Papatrigo,papatrigo,,Ávila,Castilla León,40.86782,-4.834677,889.0
5180,"Parral, El",parralel,,Ávila,Castilla León,40.7973,-4.990441,1049.357
5181,Pascualcobo,pascualcobo,,Ávila,Castilla León,40.65711,-5.276952,1065.825
5182,Pedro Bernardo,pedrobernardo,,Ávila,Castilla León,40.24287,-4.914765,802.8278
5183,Pedro-Rodríguez,pedrorodriguez,,Ávila,Castilla León,40.93684,-4.784845,877.0702
5184,Peguerinos,peguerinos,,Ávila,Castilla León,40.62729,-4.232728,1361.598
5185,Peñalba de Ávila,penalbadeavila,,Ávila,Castilla León,40.77176,-4.747359,1073.66
5186,Piedrahíta,piedrahita,,Ávila,Castilla León,40.46339,-5.328194,1064.406
5187,Piedralaves,piedralaves,,Ávila,Castilla León,40.31736,-4.69809,712.4528
5188,Poveda,poveda,,Ávila,Castilla León,40.5669,-5.079698,1201.02
5189,Poyales del Hoyo,poyalesdelhoyo,,Ávila,Castilla León,40.17289,-5.166279,554.1748
5190,Pozanco,pozanco,,Ávila,Castilla León,40.8014,-4.66711,909.6544
5191,Pradosegar,pradosegar,,Ávila,Castilla León,40.55083,-5.071213,1171.21
5192,Puerto Castilla,puertocastilla,,Ávila,Castilla León,40.28954,-5.629994,1169.832
5193,Rasueros,rasueros,,Ávila,Castilla León,41.0232,-5.074331,831.9698
5194,Riocabado,riocabado,,Ávila,Castilla León,40.8301,-4.803108,909.7188
5195,Riofrío,riofrio,,Ávila,Castilla León,40.54721,-4.777152,1186.845
5196,Rivilla de Barajas,rivilladebarajas,,Ávila,Castilla León,40.9013,-4.987929,899.2758
5197,Salobral,salobral,,Ávila,Castilla León,40.61165,-4.811044,1087.409
5198,Salvadiós,salvadios,,Ávila,Castilla León,40.877,-5.096365,951.5007
5199,San Bartolomé de Béjar,sanbartolomedebejar,,Ávila,Castilla León,40.40808,-5.662875,1120.649
5200,San Bartolomé de Corneja,sanbartolomedecorneja,,Ávila,Castilla León,40.49294,-5.385234,993.1846
5201,San Bartolomé de Pinares,sanbartolomedepinares,,Ávila,Castilla León,40.54251,-4.539612,1047.196
5204,Sanchidrián,sanchidrian,,Ávila,Castilla León,40.89338,-4.581257,924.6989
5205,Sanchorreja,sanchorreja,,Ávila,Castilla León,40.66479,-4.915372,1312.153
5206,San Esteban de los Patos,sanestebandelospatos,,Ávila,Castilla León,40.74583,-4.624889,1118.933
5207,San Esteban del Valle,sanestebandelvalle,,Ávila,Castilla León,40.27536,-4.980085,795.9105
5208,San Esteban de Zapardiel,sanestebandezapardiel,,Ávila,Castilla León,41.093,-4.900951,780.4639
5209,San García de Ingelmos,sangarciadeingelmos,,Ávila,Castilla León,40.76964,-5.116322,1067.0
5210,San Juan de la Encinilla,sanjuandelaencinilla,,Ávila,Castilla León,40.82997,-4.838498,913.4266
5211,San Juan de la Nava,sanjuandelanava,,Ávila,Castilla León,40.47903,-4.682141,1126.167
5212,San Juan del Molinillo,sanjuandelmolinillo,,Ávila,Castilla León,40.45938,-4.818235,1141.855
5213,San Juan del Olmo,sanjuandelolmo,,Ávila,Castilla León,40.6527,-5.049766,1287.153
5214,San Lorenzo de Tormes,sanlorenzodetormes,,Ávila,Castilla León,40.37025,-5.48815,1028.796
5215,San Martín de la Vega del Alberche,sanmartindelavegadelalberche,,Ávila,Castilla León,40.43062,-5.156746,1510.816
5216,San Martín del Pimpollar,sanmartindelpimpollar,,Ávila,Castilla León,40.36848,-5.055604,1336.265
5217,San Miguel de Corneja,sanmigueldecorneja,,Ávila,Castilla León,40.4868,-5.287448,1063.416
5218,San Miguel de Serrezuela,sanmigueldeserrezuela,,Ávila,Castilla León,40.67038,-5.287457,1094.398
5219,San Pascual,sanpascual,,Ávila,Castilla León,40.88227,-4.756086,883.3102
5220,San Pedro del Arroyo,sanpedrodelarroyo,,Ávila,Castilla León,40.80069,-4.870896,938.8323
5221,Santa Cruz del Valle,santacruzdelvalle,,Ávila,Castilla León,40.25078,-5.003672,733.2361
5222,Santa Cruz de Pinares,santacruzdepinares,,Ávila,Castilla León,40.54183,-4.57963,1004.647
5224,Santa María del Arroyo,santamariadelarroyo,,Ávila,Castilla León,40.59944,-4.922258,1130.864
5225,Santa María del Berrocal,santamariadelberrocal,,Ávila,Castilla León,40.50954,-5.406222,1051.094
5226,Santa María de los Caballeros,santamariadeloscaballeros,,Ávila,Castilla León,40.38877,-5.451696,1041.178
5227,Santa María del Tiétar,santamariadeltietar,,Ávila,Castilla León,40.30389,-4.555526,695.9569
5228,Santiago del Collado,santiagodelcollado,,Ávila,Castilla León,40.43356,-5.356558,1221.392
5229,Santo Domingo de las Posadas,santodomingodelasposadas,,Ávila,Castilla León,40.81218,-4.633421,928.1381
5230,Santo Tomé de Zabarcos,santotomedezabarcos,,Ávila,Castilla León,40.78664,-4.910215,958.0378
5231,San Vicente de Arévalo,sanvicentedearevalo,,Ávila,Castilla León,40.9677,-4.799979,877.5375
5232,"Serrada, La",serradala,,Ávila,Castilla León,40.63132,-4.792297,1108.781
5233,Serranillos,serranillos,,Ávila,Castilla León,40.33594,-4.911497,1222.104
5234,Sigeres,sigeres,,Ávila,Castilla León,40.79939,-4.932576,962.441
5235,Sinlabajos,sinlabajos,,Ávila,Castilla León,41.07727,-4.831933,826.5585
5236,Solana de Ávila,solanadeavila,,Ávila,Castilla León,40.31465,-5.615701,1148.975
5237,Solana de Rioalmar,solanaderioalmar,,Ávila,Castilla León,40.73724,-5.010678,1122.234
5238,Solosancho,solosancho,,Ávila,Castilla León,40.55363,-4.906135,1120.799
5239,Sotalbo,sotalbo,,Ávila,Castilla León,40.54151,-4.849229,1159.905
5240,Sotillo de la Adrada,sotillodelaadrada,,Ávila,Castilla León,40.29404,-4.585647,643.7815
5241,"Tiemblo, El",tiembloel,,Ávila,Castilla León,40.41628,-4.503831,699.9511
5242,Tiñosillos,tinosillos,,Ávila,Castilla León,40.93408,-4.72748,872.8295
5243,Tolbaños,tolbanos,,Ávila,Castilla León,40.75098,-4.581374,1112.758
5244,Tormellas,tormellas,,Ávila,Castilla León,40.30432,-5.511548,1063.159
5245,Tornadizos de Ávila,tornadizosdeavila,,Ávila,Castilla León,40.62614,-4.615232,1197.256
5246,Tórtoles,tortoles,,Ávila,Castilla León,40.5609,-5.261655,1242.698
5247,"Torre, La",torrela,,Ávila,Castilla León,40.58926,-4.965192,1131.327
5249,Umbrías,umbrias,,Ávila,Castilla León,40.31298,-5.578032,1102.692
5251,Vadillo de la Sierra,vadillodelasierra,,Ávila,Castilla León,40.60506,-5.122006,1347.321
5252,Valdecasa,valdecasa,,Ávila,Castilla León,40.65955,-5.012668,1367.423
5253,Vega de Santa María,vegadesantamaria,,Ávila,Castilla León,40.83594,-4.64183,946.2527
5254,Velayos,velayos,,Ávila,Castilla León,40.84094,-4.622241,937.4861
5256,Villaflor,villaflor,,Ávila,Castilla León,40.7584,-4.874116,981.3378
5257,Villafranca de la Sierra,villafrancadelasierra,,Ávila,Castilla León,40.49773,-5.230729,1105.417
5258,Villanueva de Gómez,villanuevadegomez,,Ávila,Castilla León,40.88379,-4.715201,888.3561
5259,Villanueva del Aceral,villanuevadelaceral,,Ávila,Castilla León,41.04132,-4.852352,846.7498
5260,Villanueva del Campillo,villanuevadelcampillo,,Ávila,Castilla León,40.57825,-5.179864,1446.368
5261,Villar de Corneja,villardecorneja,,Ávila,Castilla León,40.47478,-5.43251,998.0105
5262,Villarejo del Valle,villarejodelvalle,,Ávila,Castilla León,40.28594,-4.997665,830.5555
5263,Villatoro,villatoro,,Ávila,Castilla León,40.55616,-5.111281,1195.601
5264,Viñegra de Moraña,vinegrademorana,,Ávila,Castilla León,40.84931,-4.922153,907.2875
5265,Vita,vita,,Ávila,Castilla León,40.81179,-5.005141,991.2439
5266,Zapardiel de la Cañada,zapardieldelacanada,,Ávila,Castilla León,40.60593,-5.340081,1143.392
5267,Zapardiel de la Ribera,zapardieldelaribera,,Ávila,Castilla León,40.35575,-5.328642,1356.206
5901,San Juan de Gredos,sanjuandegredos,,Ávila,Castilla León,40.36386,-5.237109,1530.967
5902,Santa María del Cubillo,santamariadelcubillo,,Ávila,Castilla León,40.7425,-4.472222,1212.193
5903,Diego del Carpio,diegodelcarpio,,Ávila,Castilla León,40.6625,-5.340833,1018.423
5904,Santiago del Tormes,santiagodeltormes,,Ávila,Castilla León,40.36666,-5.366667,1539.357
5905,Villanueva de Ávila,villanuevadeavila,,Ávila,Castilla León,40.37959,-4.821985,1060.641
6001,Acedera,acedera,,Badajoz,Extremadura,39.0766,-5.572279,308.0381
6002,Aceuchal,aceuchal,,Badajoz,Extremadura,38.64706,-6.487179,307.0
6003,Ahillones,ahillones,,Badajoz,Extremadura,38.26235,-5.861972,579.7605
6004,Alange,alange,,Badajoz,Extremadura,38.78708,-6.243493,322.5832
6005,"Albuera, La",albuerala,,Badajoz,Extremadura,38.71612,-6.822261,249.9245
6006,Alburquerque,alburquerque,,Badajoz,Extremadura,39.21936,-7.001317,442.164
6007,Alconchel,alconchel,,Badajoz,Extremadura,38.51668,-7.070871,284.3204
6008,Alconera,alconera,,Badajoz,Extremadura,38.39647,-6.476881,518.1642
6009,Aljucén,aljucen,,Badajoz,Extremadura,39.04591,-6.33166,249.3199
6010,Almendral,almendral,,Badajoz,Extremadura,38.61327,-6.822295,329.3619
6011,Almendralejo,almendralejo,,Badajoz,Extremadura,38.68982,-6.405679,336.7314
6012,Arroyo de San Serván,arroyodesanservan,,Badajoz,Extremadura,38.85286,-6.455208,225.0338
6013,Atalaya,atalaya,,Badajoz,Extremadura,38.3359,-6.472773,503.989
6014,Azuaga,azuaga,,Badajoz,Extremadura,38.25962,-5.677916,588.9749
6015,Badajoz,badajoz,,Badajoz,Extremadura,38.8786,-6.970284,192.0375
6016,Barcarrota,barcarrota,,Badajoz,Extremadura,38.51441,-6.849041,488.5576
6017,Baterno,baterno,,Badajoz,Extremadura,38.95633,-4.911456,561.4879
6018,Benquerencia de la Serena,benquerenciadelaserena,,Badajoz,Extremadura,38.69917,-5.49442,668.4374
6019,Berlanga,berlanga,,Badajoz,Extremadura,38.28272,-5.829181,567.5744
6020,Bienvenida,bienvenida,,Badajoz,Extremadura,38.29828,-6.21055,610.3852
6021,Bodonal de la Sierra,bodonaldelasierra,,Badajoz,Extremadura,38.1479,-6.560087,611.0769
6022,Burguillos del Cerro,burguillosdelcerro,,Badajoz,Extremadura,38.37848,-6.589302,404.4514
6023,Cabeza del Buey,cabezadelbuey,,Badajoz,Extremadura,38.72123,-5.219465,536.211
6024,Cabeza la Vaca,cabezalavaca,,Badajoz,Extremadura,38.08687,-6.422567,759.3353
6025,Calamonte,calamonte,,Badajoz,Extremadura,38.88998,-6.385029,225.6309
6026,Calera de León,caleradeleon,,Badajoz,Extremadura,38.10712,-6.336793,698.5616
6027,Calzadilla de los Barros,calzadilladelosbarros,,Badajoz,Extremadura,38.30002,-6.316763,560.012
6028,Campanario,campanario,,Badajoz,Extremadura,38.86335,-5.617795,399.8418
6029,Campillo de Llerena,campillodellerena,,Badajoz,Extremadura,38.50023,-5.831132,499.8665
6030,Capilla,capilla,,Badajoz,Extremadura,38.82045,-5.08428,494.1088
6031,Carmonita,carmonita,,Badajoz,Extremadura,39.15389,-6.338521,380.518
6032,"Carrascalejo, El",carrascalejoel,,Badajoz,Extremadura,39.02259,-6.337111,298.9797
6033,Casas de Don Pedro,casasdedonpedro,,Badajoz,Extremadura,39.10563,-5.328635,386.5399
6034,Casas de Reina,casasdereina,,Badajoz,Extremadura,38.20173,-5.969779,633.2156
6035,Castilblanco,castilblanco,,Badajoz,Extremadura,39.28229,-5.091,503.2614
6036,Castuera,castuera,,Badajoz,Extremadura,38.72257,-5.545517,507.8511
6037,"Codosera, La",codoserala,,Badajoz,Extremadura,39.20667,-7.169003,317.7365
6038,Cordobilla de Lácara,cordobilladelacara,,Badajoz,Extremadura,39.14813,-6.436437,304.6748
6039,"Coronada, La",coronadala,,Badajoz,Extremadura,38.9172,-5.669852,361.9379
6040,Corte de Peleas,cortedepeleas,,Badajoz,Extremadura,38.72504,-6.67092,242.0632
6041,Cristina,cristina,,Badajoz,Extremadura,38.83703,-6.100307,292.6012
6042,Cheles,cheles,,Badajoz,Extremadura,38.51247,-7.281178,196.9729
6043,Don Álvaro,donalvaro,,Badajoz,Extremadura,38.84887,-6.275146,261.4249
6044,Don Benito,donbenito,,Badajoz,Extremadura,38.9543,-5.861752,286.0323
6045,Entrín Bajo,entrinbajo,,Badajoz,Extremadura,38.71845,-6.713396,243.4635
6046,Esparragalejo,esparragalejo,,Badajoz,Extremadura,38.94225,-6.439241,221.896
6047,Esparragosa de la Serena,esparragosadelaserena,,Badajoz,Extremadura,38.6495,-5.607008,454.5637
6048,Esparragosa de Lares,esparragosadelares,,Badajoz,Extremadura,38.97508,-5.270102,471.0262
6049,Feria,feria,,Badajoz,Extremadura,38.51197,-6.564341,558.8891
6050,Fregenal de la Sierra,fregenaldelasierra,,Badajoz,Extremadura,38.16476,-6.651353,563.0306
6051,Fuenlabrada de los Montes,fuenlabradadelosmontes,,Badajoz,Extremadura,39.13128,-4.935597,544.9579
6052,Fuente de Cantos,fuentedecantos,,Badajoz,Extremadura,38.24661,-6.309231,583.8423
6053,Fuente del Arco,fuentedelarco,,Badajoz,Extremadura,38.15202,-5.896564,698.8098
6054,Fuente del Maestre,fuentedelmaestre,,Badajoz,Extremadura,38.52863,-6.449848,445.575
6055,Fuentes de León,fuentesdeleon,,Badajoz,Extremadura,38.06809,-6.538614,759.8053
6056,Garbayuela,garbayuela,,Badajoz,Extremadura,39.04953,-5.000564,487.4009
6057,Garlitos,garlitos,,Badajoz,Extremadura,38.87967,-5.04805,538.7179
6058,"Garrovilla, La",garrovillala,,Badajoz,Extremadura,38.92122,-6.475953,207.8057
6059,Granja de Torrehermosa,granjadetorrehermosa,,Badajoz,Extremadura,38.31067,-5.597606,590.6907
6060,Guareña,guarena,,Badajoz,Extremadura,38.86047,-6.104637,285.5005
6061,"Haba, La",habala,,Badajoz,Extremadura,38.91763,-5.801109,311.9093
6062,Helechosa de los Montes,helechosadelosmontes,,Badajoz,Extremadura,39.31137,-4.909214,441.6037
6063,Herrera del Duque,herreradelduque,,Badajoz,Extremadura,39.16891,-5.051313,459.3652
6064,Higuera de la Serena,higueradelaserena,,Badajoz,Extremadura,38.64634,-5.741075,476.8962
6065,Higuera de Llerena,higueradellerena,,Badajoz,Extremadura,38.37675,-5.999552,517.9836
6066,Higuera de Vargas,higueradevargas,,Badajoz,Extremadura,38.44587,-6.973897,361.537
6067,Higuera la Real,higueralareal,,Badajoz,Extremadura,38.14108,-6.689744,623.5339
6068,Hinojosa del Valle,hinojosadelvalle,,Badajoz,Extremadura,38.48338,-6.184557,441.5001
6069,Hornachos,hornachos,,Badajoz,Extremadura,38.55511,-6.069669,484.8826
6070,Jerez de los Caballeros,jerezdeloscaballeros,,Badajoz,Extremadura,38.31935,-6.771007,486.1686
6071,"Lapa, La",lapala,,Badajoz,Extremadura,38.45348,-6.522162,467.7335
6072,Lobón,lobon,,Badajoz,Extremadura,38.84752,-6.625467,242.9643
6073,Llera,llera,,Badajoz,Extremadura,38.44814,-6.057196,488.1218
6074,Llerena,llerena,,Badajoz,Extremadura,38.23769,-6.015329,644.6722
6075,Magacela,magacela,,Badajoz,Extremadura,38.89587,-5.73411,473.8124
6076,Maguilla,maguilla,,Badajoz,Extremadura,38.36658,-5.837015,527.6955
6077,Malcocinado,malcocinado,,Badajoz,Extremadura,38.12186,-5.693144,625.1129
6078,Malpartida de la Serena,malpartidadelaserena,,Badajoz,Extremadura,38.67442,-5.640807,483.3142
6079,Manchita,manchita,,Badajoz,Extremadura,38.81499,-6.022654,335.4408
6080,Medellín,medellin,,Badajoz,Extremadura,38.96302,-5.957706,250.0114
6081,Medina de las Torres,medinadelastorres,,Badajoz,Extremadura,38.34339,-6.411753,526.7921
6082,Mengabril,mengabril,,Badajoz,Extremadura,38.93616,-5.933055,253.0
6083,Mérida,merida,,Badajoz,Extremadura,38.91586,-6.345606,227.433
6084,Mirandilla,mirandilla,,Badajoz,Extremadura,39.0017,-6.289864,294.3425
6085,Monesterio,monesterio,,Badajoz,Extremadura,38.08678,-6.274293,754.8566
6086,Montemolín,montemolin,,Badajoz,Extremadura,38.15512,-6.214543,617.7222
6087,Monterrubio de la Serena,monterrubiodelaserena,,Badajoz,Extremadura,38.5892,-5.443485,553.7913
6088,Montijo,montijo,,Badajoz,Extremadura,38.90995,-6.617333,203.0528
6089,"Morera, La",morerala,,Badajoz,Extremadura,38.54596,-6.654481,426.6002
6090,"Nava de Santiago, La",navadesantiagola,,Badajoz,Extremadura,39.06277,-6.50497,265.6057
6091,Navalvillar de Pela,navalvillardepela,,Badajoz,Extremadura,39.09064,-5.469171,349.6248
6092,Nogales,nogales,,Badajoz,Extremadura,38.58658,-6.749022,372.3395
6093,Oliva de la Frontera,olivadelafrontera,,Badajoz,Extremadura,38.27606,-6.91992,376.0301
6094,Oliva de Mérida,olivademerida,,Badajoz,Extremadura,38.79173,-6.126723,322.3082
6095,Olivenza,olivenza,,Badajoz,Extremadura,38.68164,-7.101516,258.1104
6096,Orellana de la Sierra,orellanadelasierra,,Badajoz,Extremadura,39.03048,-5.497543,398.1514
6097,Orellana la Vieja,orellanalavieja,,Badajoz,Extremadura,39.00505,-5.534274,359.3995
6098,Palomas,palomas,,Badajoz,Extremadura,38.69216,-6.134156,322.4935
6099,"Parra, La",parrala,,Badajoz,Extremadura,38.5215,-6.6244,521.9587
6100,Peñalsordo,penalsordo,,Badajoz,Extremadura,38.81918,-5.114106,431.0298
6101,Peraleda del Zaucejo,peraledadelzaucejo,,Badajoz,Extremadura,38.47416,-5.565681,542.9088
6102,Puebla de Alcocer,puebladealcocer,,Badajoz,Extremadura,38.98521,-5.257938,534.4778
6103,Puebla de la Calzada,puebladelacalzada,,Badajoz,Extremadura,38.89429,-6.624558,191.7965
6104,Puebla de la Reina,puebladelareina,,Badajoz,Extremadura,38.66394,-6.103811,375.599
6105,Puebla del Maestre,puebladelmaestre,,Badajoz,Extremadura,38.08456,-6.07957,554.0134
6106,Puebla del Prior,puebladelprior,,Badajoz,Extremadura,38.5709,-6.197352,381.7524
6107,Puebla de Obando,puebladeobando,,Badajoz,Extremadura,39.17762,-6.628193,380.0834
6108,Puebla de Sancho Pérez,puebladesanchoperez,,Badajoz,Extremadura,38.39765,-6.399928,522.9659
6109,Quintana de la Serena,quintanadelaserena,,Badajoz,Extremadura,38.74163,-5.672316,409.9685
6110,Reina,reina,,Badajoz,Extremadura,38.18746,-5.949533,717.8853
6111,Rena,rena,,Badajoz,Extremadura,39.05318,-5.808552,261.9456
6112,Retamal de Llerena,retamaldellerena,,Badajoz,Extremadura,38.57788,-5.838177,464.8723
6113,Ribera del Fresno,riberadelfresno,,Badajoz,Extremadura,38.55236,-6.241587,398.8069
6114,Risco,risco,,Badajoz,Extremadura,38.91041,-5.123031,493.8158
6115,"Roca de la Sierra, La",rocadelasierrala,,Badajoz,Extremadura,39.10997,-6.689936,248.0425
6116,Salvaleón,salvaleon,,Badajoz,Extremadura,38.50986,-6.786355,529.4485
6117,Salvatierra de los Barros,salvatierradelosbarros,,Badajoz,Extremadura,38.49078,-6.685156,625.0818
6118,Sancti-Spíritus,sanctispiritus,,Badajoz,Castilla León,40.70518,-6.400911,760.9977
6119,San Pedro de Mérida,sanpedrodemerida,,Badajoz,Extremadura,38.94798,-6.186302,281.0936
6120,Santa Amalia,santaamalia,,Badajoz,Extremadura,39.01209,-6.01155,255.474
6121,Santa Marta,santamarta,,Badajoz,Extremadura,38.61237,-6.629105,345.2148
6122,"Santos de Maimona, Los",santosdemaimonalos,,Badajoz,Extremadura,38.44897,-6.383959,534.4554
6123,San Vicente de Alcántara,sanvicentedealcantara,,Badajoz,Extremadura,39.36045,-7.13695,502.4301
6124,Segura de León,seguradeleon,,Badajoz,Extremadura,38.12104,-6.528532,681.7979
6125,Siruela,siruela,,Badajoz,Extremadura,38.97767,-5.051702,512.6407
6126,Solana de los Barros,solanadelosbarros,,Badajoz,Extremadura,38.72629,-6.538014,266.4142
6127,Talarrubias,talarrubias,,Badajoz,Extremadura,39.03328,-5.236056,439.8815
6128,Talavera la Real,talaveralareal,,Badajoz,Extremadura,38.8765,-6.77358,187.5183
6129,Táliga,taliga,,Badajoz,Extremadura,38.52709,-7.014642,304.307
6130,Tamurejo,tamurejo,,Badajoz,Extremadura,38.99115,-4.94776,546.1544
6131,Torre de Miguel Sesmero,torredemiguelsesmero,,Badajoz,Extremadura,38.61896,-6.796033,323.1891
6132,Torremayor,torremayor,,Badajoz,Extremadura,38.90372,-6.536332,195.9215
6133,Torremejía,torremejia,,Badajoz,Extremadura,38.78965,-6.381672,291.6581
6134,Trasierra,trasierra,,Badajoz,Extremadura,38.19107,-5.995481,700.4008
6135,Trujillanos,trujillanos,,Badajoz,Extremadura,38.9516,-6.259639,257.3852
6136,Usagre,usagre,,Badajoz,Extremadura,38.35719,-6.164374,561.4595
6137,Valdecaballeros,valdecaballeros,,Badajoz,Extremadura,39.24578,-5.191957,383.3043
6138,Valdetorres,valdetorres,,Badajoz,Extremadura,38.91568,-6.068682,244.8665
6139,Valencia de las Torres,valenciadelastorres,,Badajoz,Extremadura,38.405,-6.003782,514.027
6140,Valencia del Mombuey,valenciadelmombuey,,Badajoz,Extremadura,38.24256,-7.119643,295.6457
6141,Valencia del Ventoso,valenciadelventoso,,Badajoz,Extremadura,38.265,-6.474613,496.0627
6142,Valverde de Burguillos,valverdedeburguillos,,Badajoz,Extremadura,38.32713,-6.537829,412.0819
6143,Valverde de Leganés,valverdedeleganes,,Badajoz,Extremadura,38.67241,-6.981911,291.0059
6144,Valverde de Llerena,valverdedellerena,,Badajoz,Extremadura,38.21376,-5.822106,575.8016
6145,Valverde de Mérida,valverdedemerida,,Badajoz,Extremadura,38.91176,-6.221605,271.6688
6146,Valle de la Serena,valledelaserena,,Badajoz,Extremadura,38.70062,-5.799649,429.2383
6147,Valle de Matamoros,valledematamoros,,Badajoz,Extremadura,38.3796,-6.802888,588.3872
6148,Valle de Santa Ana,valledesantaana,,Badajoz,Extremadura,38.36528,-6.788002,492.5686
6149,Villafranca de los Barros,villafrancadelosbarros,,Badajoz,Extremadura,38.5623,-6.337831,424.6475
6150,Villagarcía de la Torre,villagarciadelatorre,,Badajoz,Extremadura,38.29387,-6.080569,592.4898
6151,Villagonzalo,villagonzalo,,Badajoz,Extremadura,38.86309,-6.196941,238.0459
6152,Villalba de los Barros,villalbadelosbarros,,Badajoz,Extremadura,38.61292,-6.509777,310.169
6153,Villanueva de la Serena,villanuevadelaserena,,Badajoz,Extremadura,38.97399,-5.800302,298.9061
6154,Villanueva del Fresno,villanuevadelfresno,,Badajoz,Extremadura,38.37597,-7.168993,255.68
6155,Villar del Rey,villardelrey,,Badajoz,Extremadura,39.13239,-6.847796,247.6167
6156,Villar de Rena,villarderena,,Badajoz,Extremadura,39.07669,-5.811779,268.562
6157,Villarta de los Montes,villartadelosmontes,,Badajoz,Extremadura,39.21384,-4.792194,546.1343
6158,Zafra,zafra,,Badajoz,Extremadura,38.4258,-6.416446,517.2546
6159,Zahínos,zahinos,,Badajoz,Extremadura,38.33017,-6.955032,345.8639
6160,Zalamea de la Serena,zalameadelaserena,,Badajoz,Extremadura,38.64977,-5.656967,482.5517
6161,Zarza-Capilla,zarzacapilla,,Badajoz,Extremadura,38.80047,-5.169444,533.903
6162,"Zarza, La",zarzala,,Badajoz,Castilla León,41.26155,-4.770861,758.8602
6901,Valdelacalzada,valdelacalzada,,Badajoz,Extremadura,38.88985,-6.701389,184.8226
6902,Pueblonuevo del Guadiana,pueblonuevodelguadiana,,Badajoz,Extremadura,38.92309,-6.755604,181.9205
7001,Alaró,alaro,,Illes Balears,Islas Baleares,39.70685,2.790548,224.2227
7002,Alaior,alaior,,Illes Balears,Islas Baleares,39.93064,4.139987,114.0
7003,Alcúdia,alcudia,,Illes Balears,Islas Baleares,39.85231,3.122027,15.67431
7004,Algaida,algaida,,Illes Balears,Islas Baleares,39.55969,2.892573,193.2809
7005,Andratx,andratx,,Illes Balears,Islas Baleares,39.5708,2.421365,60.20264
7006,Artà,arta,,Illes Balears,Islas Baleares,39.69215,3.349073,130.6105
7007,Banyalbufar,banyalbufar,,Illes Balears,Islas Baleares,39.68718,2.513457,109.7573
7008,Binissalem,binissalem,,Illes Balears,Islas Baleares,39.68446,2.847511,129.6953
7009,Búger,buger,,Illes Balears,Islas Baleares,39.75927,2.985579,93.89581
7010,Bunyola,bunyola,,Illes Balears,Islas Baleares,39.69663,2.699386,216.3141
7011,Calvià,calvia,,Illes Balears,Islas Baleares,39.56524,2.504216,114.0867
7012,Campanet,campanet,,Illes Balears,Islas Baleares,39.77475,2.965845,127.2656
7013,Campos,campos,,Illes Balears,Islas Baleares,39.42727,3.021843,22.76925
7014,Capdepera,capdepera,,Illes Balears,Islas Baleares,39.70133,3.435561,117.9911
7015,Ciutadella de Menorca,ciutadellademenorca,,Illes Balears,Islas Baleares,40.00232,3.839262,26.66946
7016,Consell,consell,,Illes Balears,Islas Baleares,39.67012,2.816188,148.8572
7017,Costitx,costitx,,Illes Balears,Islas Baleares,39.65622,2.949179,135.5031
7019,Escorca,escorca,,Illes Balears,Islas Baleares,39.8211,2.869478,690.5303
7020,Esporles,esporles,,Illes Balears,Islas Baleares,39.66946,2.57915,187.8363
7021,Estellencs,estellencs,,Illes Balears,Islas Baleares,39.65333,2.481678,151.0275
7022,Felanitx,felanitx,,Illes Balears,Islas Baleares,39.46876,3.148028,116.2949
7023,Ferreries,ferreries,,Illes Balears,Islas Baleares,39.98328,4.010968,74.94495
7024,Formentera,formentera,,Illes Balears,Islas Baleares,38.6964,1.453135,21.56246
7025,Fornalutx,fornalutx,,Illes Balears,Islas Baleares,39.7826,2.741559,148.4023
7026,Eivissa,eivissa,,Illes Balears,Islas Baleares,38.90886,1.432378,9.813921
7027,Inca,inca,,Illes Balears,Islas Baleares,39.71875,2.915544,116.5367
7028,Lloret de Vistalegre,lloretdevistalegre,,Illes Balears,Islas Baleares,39.61689,2.974723,159.5069
7029,Lloseta,lloseta,,Illes Balears,Islas Baleares,39.71799,2.864577,166.5043
7030,Llubí,llubi,,Illes Balears,Islas Baleares,39.70045,3.004657,69.92153
7031,Llucmajor,llucmajor,,Illes Balears,Islas Baleares,39.48591,2.89485,138.0817
7032,Maó,mao,,Illes Balears,Islas Baleares,39.88961,4.264211,39.57444
7033,Manacor,manacor,,Illes Balears,Islas Baleares,39.57434,3.20142,75.37592
7034,Mancor de la Vall,mancordelavall,,Illes Balears,Islas Baleares,39.75063,2.873395,205.7321
7035,Maria de la Salut,mariadelasalut,,Illes Balears,Islas Baleares,39.67049,3.076207,86.95065
7036,Marratxí,marratxi,,Illes Balears,Islas Baleares,39.64213,2.752193,125.666
7037,"Mercadal, Es",mercadales,,Illes Balears,Islas Baleares,39.99089,4.093808,58.13219
7038,Montuïri,montuiri,,Illes Balears,Islas Baleares,39.57029,2.984617,152.9209
7039,Muro,muro,,Illes Balears,Islas Baleares,39.73408,3.053606,62.19497
7040,Palma,palma,,Illes Balears,Islas Baleares,39.56951,2.649966,31.92724
7041,Petra,petra,,Illes Balears,Islas Baleares,39.6091,3.112162,112.8493
7042,Pollença,pollenca,,Illes Balears,Islas Baleares,39.87775,3.017193,49.42315
7043,Porreres,porreres,,Illes Balears,Islas Baleares,39.51733,3.023831,130.0504
7044,"Pobla, Sa",poblasa,,Illes Balears,Islas Baleares,39.77052,3.016888,24.64385
7045,Puigpunyent,puigpunyent,,Illes Balears,Islas Baleares,39.62405,2.527614,221.9999
7046,Sant Antoni de Portmany,santantonideportmany,,Illes Balears,Islas Baleares,38.98012,1.306587,4.347667
7047,Sencelles,sencelles,,Illes Balears,Islas Baleares,39.64624,2.896189,117.951
7048,Sant Josep de sa Talaia,santjosepdesatalaia,,Illes Balears,Islas Baleares,38.92173,1.293443,201.3573
7049,Sant Joan,santjoan,,Illes Balears,Islas Baleares,39.59594,3.039554,138.863
7050,Sant Joan de Labritja,santjoandelabritja,,Illes Balears,Islas Baleares,39.07785,1.51227,189.9139
7051,Sant Llorenç des Cardassar,santllorencdescardassar,,Illes Balears,Islas Baleares,39.60896,3.284748,73.45789
7052,Sant Lluís,santlluis,,Illes Balears,Islas Baleares,39.85266,4.259394,59.16509
7053,Santa Eugènia,santaeugenia,,Illes Balears,Islas Baleares,39.62394,2.839166,130.224
7055,Santa Margalida,santamargalida,,Illes Balears,Islas Baleares,39.70306,3.103551,80.91718
7056,Santa María del Camí,santamariadelcami,,Illes Balears,Islas Baleares,39.6468,2.776213,128.8374
7057,Santanyí,santanyi,,Illes Balears,Islas Baleares,39.35489,3.127745,62.64299
7058,Selva,selva,,Illes Balears,Islas Baleares,39.75464,2.90122,193.6428
7059,"Salines, Ses",salinesses,,Illes Balears,Islas Baleares,39.339,3.051014,42.5712
7060,Sineu,sineu,,Illes Balears,Islas Baleares,39.64284,3.010996,141.6883
7061,Sóller,soller,,Illes Balears,Islas Baleares,39.76583,2.714238,42.06099
7062,Son Servera,sonservera,,Illes Balears,Islas Baleares,39.62423,3.356735,73.98268
7063,Valldemossa,valldemossa,,Illes Balears,Islas Baleares,39.71176,2.622538,415.1554
7064,"Castell, Es",castelles,,Illes Balears,Islas Baleares,39.8776,4.289603,19.78382
7065,Vilafranca de Bonany,vilafrancadebonany,,Illes Balears,Islas Baleares,39.56957,3.084015,98.93115
7901,Ariany,ariany,,Illes Balears,Islas Baleares,39.64943,3.11086,122.6419
7902,"Migjorn Gran, Es",migjorngranes,,Illes Balears,Islas Baleares,39.94633,4.049105,114.6791
8001,Abrera,abrera,,Barcelona,Cataluña,41.51609,1.902142,109.4215
8002,Aguilar de Segarra,aguilardesegarra,,Barcelona,Cataluña,41.73976,1.629385,485.7191
8003,Alella,alella,,Barcelona,Cataluña,41.49395,2.295461,98.87153
8004,Alpens,alpens,,Barcelona,Cataluña,42.1201,2.101363,871.324
8005,"Ametlla del Vallès, L'",ametlladelvallesl',,Barcelona,Cataluña,41.66976,2.261185,292.0488
8006,Arenys de Mar,arenysdemar,,Barcelona,Cataluña,41.57944,2.55148,13.99495
8007,Arenys de Munt,arenysdemunt,,Barcelona,Cataluña,41.61026,2.541376,135.549
8008,Argençola,argencola,,Barcelona,Cataluña,41.59967,1.44341,713.9279
8009,Argentona,argentona,,Barcelona,Cataluña,41.55555,2.400564,92.69514
8010,Artés,artes,,Barcelona,Cataluña,41.79839,1.954726,318.0594
8011,Avià,avia,,Barcelona,Cataluña,42.07741,1.825308,666.2902
8012,Avinyó,avinyo,,Barcelona,Cataluña,41.86209,1.971941,358.056
8013,Avinyonet del Penedès,avinyonetdelpenedes,,Barcelona,Cataluña,41.3606,1.776485,283.9233
8014,Aiguafreda,aiguafreda,,Barcelona,Cataluña,41.76884,2.250261,410.6152
8015,Badalona,badalona,,Barcelona,Cataluña,41.45014,2.24742,16.7426
8016,Bagà,baga,,Barcelona,Cataluña,42.25188,1.863364,756.5488
8017,Balenyà,balenya,,Barcelona,Cataluña,41.84387,2.251218,593.3597
8018,Balsareny,balsareny,,Barcelona,Cataluña,41.86267,1.873386,332.1174
8019,Barcelona,barcelona,,Barcelona,Cataluña,41.38792,2.169919,19.99069
8020,Begues,begues,,Barcelona,Cataluña,41.33101,1.921987,371.5191
8021,Bellprat,bellprat,,Barcelona,Cataluña,41.51725,1.433458,644.4128
8022,Berga,berga,,Barcelona,Cataluña,42.10144,1.8438,717.4442
8024,Borredà,borreda,,Barcelona,Cataluña,42.13541,1.993754,854.1898
8025,"Bruc, El",brucel,,Barcelona,Cataluña,41.57993,1.78023,486.0568
8026,"Brull, El",brullel,,Barcelona,Cataluña,41.81677,2.305493,844.6136
8027,"Cabanyes, Les",cabanyesles,,Barcelona,Cataluña,41.37174,1.68963,255.9891
8028,Cabrera d'Anoia,cabrerad'anoia,,Barcelona,Cataluña,41.47944,1.704722,298.3023
8029,Cabrera de Mar,cabrerademar,,Barcelona,Cataluña,41.52623,2.393533,91.71696
8030,Cabrils,cabrils,,Barcelona,Cataluña,41.52552,2.368645,143.7525
8031,Calaf,calaf,,Barcelona,Cataluña,41.73342,1.513498,682.8802
8032,Caldes d'Estrac,caldesd'estrac,,Barcelona,Cataluña,41.56946,2.526318,26.84373
8033,Caldes de Montbui,caldesdemontbui,,Barcelona,Cataluña,41.62976,2.165922,207.0234
8034,Calders,calders,,Barcelona,Cataluña,41.79227,1.996567,553.9763
8035,Calella,calella,,Barcelona,Cataluña,41.6134,2.657365,11.84439
8036,Calonge de Segarra,calongedesegarra,,Barcelona,Cataluña,41.76363,1.482249,600.3174
8037,Calldetenes,calldetenes,,Barcelona,Cataluña,41.92522,2.283792,492.9868
8038,Callús,callus,,Barcelona,Cataluña,41.78109,1.784008,259.3951
8039,Campins,campins,,Barcelona,Cataluña,41.72538,2.464172,326.2226
8040,Canet de Mar,canetdemar,,Barcelona,Cataluña,41.58897,2.581924,20.65502
8041,Canovelles,canovelles,,Barcelona,Cataluña,41.61582,2.283456,152.383
8042,Cànoves i Samalús,canovesisamalus,,Barcelona,Cataluña,41.69384,2.353842,353.0184
8043,Canyelles,canyelles,,Barcelona,Cataluña,41.28708,1.721569,141.6833
8044,Capellades,capellades,,Barcelona,Cataluña,41.53075,1.679613,371.6293
8045,Capolat,capolat,,Barcelona,Cataluña,42.07713,1.752565,1256.905
8046,Cardedeu,cardedeu,,Barcelona,Cataluña,41.63816,2.354492,195.9439
8047,Cardona,cardona,,Barcelona,Cataluña,41.91392,1.681348,513.4745
8048,Carme,carme,,Barcelona,Cataluña,41.53126,1.623486,333.2925
8049,Casserres,casserres,,Barcelona,Cataluña,42.01234,1.845834,589.9404
8050,Castellar del Riu,castellardelriu,,Barcelona,Cataluña,42.12284,1.772439,1513.436
8051,Castellar del Vallès,castellardelvalles,,Barcelona,Cataluña,41.61618,2.085649,326.716
8052,Castellar de n'Hug,castellarden'hug,,Barcelona,Cataluña,42.28326,2.016574,1395.379
8053,Castellbell i el Vilar,castellbellielvilar,,Barcelona,Cataluña,41.63389,1.863889,204.0168
8054,Castellbisbal,castellbisbal,,Barcelona,Cataluña,41.47467,1.981407,155.6016
8055,Castellcir,castellcir,,Barcelona,Cataluña,41.76043,2.148678,777.0593
8056,Castelldefels,castelldefels,,Barcelona,Cataluña,41.28039,1.976774,11.07469
8057,Castell de l'Areny,castelldel'areny,,Barcelona,Cataluña,42.17318,1.945753,968.3701
8058,Castellet i la Gornal,castelletilagornal,,Barcelona,Cataluña,41.25391,1.592478,136.4205
8059,Castellfollit del Boix,castellfollitdelboix,,Barcelona,Cataluña,41.66579,1.684726,698.686
8060,Castellfollit de Riubregós,castellfollitderiubregos,,Barcelona,Cataluña,41.77595,1.437833,490.0403
8061,Castellgalí,castellgali,,Barcelona,Cataluña,41.67451,1.839598,253.3427
8062,Castellnou de Bages,castellnoudebages,,Barcelona,Cataluña,41.83533,1.837383,495.1176
8063,Castellolí,castelloli,,Barcelona,Cataluña,41.59896,1.700774,398.4724
8064,Castellterçol,castelltercol,,Barcelona,Cataluña,41.74788,2.12309,726.6985
8065,Castellví de la Marca,castellvidelamarca,,Barcelona,Cataluña,41.33242,1.594271,245.9974
8066,Castellví de Rosanes,castellviderosanes,,Barcelona,Cataluña,41.45037,1.899479,180.9096
8067,Centelles,centelles,,Barcelona,Cataluña,41.79659,2.221327,520.1739
8068,Cervelló,cervello,,Barcelona,Cataluña,41.39615,1.957621,124.1015
8069,Collbató,collbato,,Barcelona,Cataluña,41.56639,1.830136,356.3489
8070,Collsuspina,collsuspina,,Barcelona,Cataluña,41.82787,2.175478,903.0676
8071,Copons,copons,,Barcelona,Cataluña,41.63666,1.517642,427.6519
8072,Corbera de Llobregat,corberadellobregat,,Barcelona,Cataluña,41.41764,1.932827,247.6125
8073,Cornellà de Llobregat,cornelladellobregat,,Barcelona,Cataluña,41.35561,2.070432,34.61025
8074,Cubelles,cubelles,,Barcelona,Cataluña,41.20835,1.672825,17.76687
8075,Dosrius,dosrius,,Barcelona,Cataluña,41.59482,2.405386,145.7481
8076,Esparreguera,esparreguera,,Barcelona,Cataluña,41.53889,1.870692,186.3232
8077,Esplugues de Llobregat,espluguesdellobregat,,Barcelona,Cataluña,41.37751,2.088085,102.3782
8078,"Espunyola, L'",espunyolal',,Barcelona,Cataluña,42.05222,1.77324,800.0547
8079,"Estany, L'",estanyl',,Barcelona,Cataluña,41.86858,2.113499,871.5331
8080,Fígols,figols,,Barcelona,Cataluña,42.1809,1.836082,1165.989
8081,Fogars de Montclús,fogarsdemontclus,,Barcelona,Cataluña,41.72861,2.444444,387.6345
8082,Fogars de la Selva,fogarsdelaselva,,Barcelona,Cataluña,41.72539,2.673566,103.0012
8083,Folgueroles,folgueroles,,Barcelona,Cataluña,41.93813,2.31796,549.4312
8084,Fonollosa,fonollosa,,Barcelona,Cataluña,41.76566,1.669017,543.1286
8085,Font-rubí,fontrubi,,Barcelona,Cataluña,41.43423,1.591408,570.7221
8086,"Franqueses del Vallès, Les",franquesesdelvallesles,,Barcelona,Cataluña,41.61889,2.298056,193.2448
8087,Gallifa,gallifa,,Barcelona,Cataluña,41.69324,2.115268,499.525
8088,"Garriga, La",garrigala,,Barcelona,Cataluña,41.68537,2.285918,254.3281
8089,Gavà,gava,,Barcelona,Cataluña,41.30317,2.003213,17.60962
8090,Gaià,gaia,,Barcelona,Cataluña,41.91722,1.92489,476.878
8091,Gelida,gelida,,Barcelona,Cataluña,41.44048,1.862745,179.6132
8092,Gironella,gironella,,Barcelona,Cataluña,42.03363,1.8825,448.126
8093,Gisclareny,gisclareny,,Barcelona,Cataluña,42.25015,1.786561,1322.767
8094,"Granada, La",granadala,,Barcelona,Cataluña,41.37685,1.719494,262.5426
8095,Granera,granera,,Barcelona,Cataluña,41.72563,2.061581,770.4465
8096,Granollers,granollers,,Barcelona,Cataluña,41.60821,2.287789,153.9423
8097,Gualba,gualba,,Barcelona,Cataluña,41.73145,2.502726,179.8176
8098,Sant Salvador de Guardiola,santsalvadordeguardiola,,Barcelona,Cataluña,41.6806,1.767125,328.5852
8099,Guardiola de Berguedà,guardioladebergueda,,Barcelona,Cataluña,42.23344,1.879111,736.9873
8100,Gurb,gurb,,Barcelona,Cataluña,41.95394,2.235545,510.7029
8101,"Hospitalet de Llobregat, L'",hospitaletdellobregatl',,Barcelona,Cataluña,41.35958,2.099704,15.67791
8102,Igualada,igualada,,Barcelona,Cataluña,41.57877,1.617193,324.2647
8103,Jorba,jorba,,Barcelona,Cataluña,41.60049,1.546195,392.2477
8104,"Llacuna, La",llacunala,,Barcelona,Cataluña,41.39901,2.197244,2.997324
8105,"Llagosta, La",llagostala,,Barcelona,Cataluña,41.51321,2.193246,54.71911
8106,Llinars del Vallès,llinarsdelvalles,,Barcelona,Cataluña,41.63935,2.404427,188.906
8107,Lliçà d'Amunt,llicad'amunt,,Barcelona,Cataluña,41.60865,2.239443,130.7585
8108,Lliçà de Vall,llicadevall,,Barcelona,Cataluña,41.59081,2.242733,116.4834
8109,Lluçà,lluca,,Barcelona,Cataluña,42.05048,2.035043,751.5039
8110,Malgrat de Mar,malgratdemar,,Barcelona,Cataluña,41.64655,2.741634,9.097663
8111,Malla,malla,,Barcelona,Cataluña,41.88734,2.235119,575.686
8112,Manlleu,manlleu,,Barcelona,Cataluña,41.99995,2.284165,453.0776
8113,Manresa,manresa,,Barcelona,Cataluña,41.72517,1.823353,236.034
8114,Martorell,martorell,,Barcelona,Cataluña,41.47355,1.927682,66.23137
8115,Martorelles,martorelles,,Barcelona,Cataluña,41.52577,2.242882,115.5095
8116,"Masies de Roda, Les",masiesderodales,,Barcelona,Cataluña,41.98956,2.317853,469.4734
8117,"Masies de Voltregà, Les",masiesdevoltregales,,Barcelona,Cataluña,42.02114,2.234093,536.5225
8118,"Masnou, El",masnouel,,Barcelona,Cataluña,41.47931,2.319244,10.36085
8119,Masquefa,masquefa,,Barcelona,Cataluña,41.50307,1.811926,258.067
8120,Matadepera,matadepera,,Barcelona,Cataluña,41.5967,2.026747,421.1513
8121,Mataró,mataro,,Barcelona,Cataluña,41.5375,2.445278,20.37009
8122,Mediona,mediona,,Barcelona,Cataluña,41.48333,1.616667,526.9124
8123,Molins de Rei,molinsderei,,Barcelona,Cataluña,41.41392,2.015836,33.16643
8124,Mollet del Vallès,molletdelvalles,,Barcelona,Cataluña,41.54052,2.213529,74.09034
8125,Montcada i Reixac,montcadaireixac,,Barcelona,Cataluña,41.48231,2.188504,37.0056
8126,Montgat,montgat,,Barcelona,Cataluña,41.46645,2.279088,22.97567
8127,Monistrol de Montserrat,monistroldemontserrat,,Barcelona,Cataluña,41.60986,1.843154,168.2423
8128,Monistrol de Calders,monistroldecalders,,Barcelona,Cataluña,41.76059,2.014233,452.798
8129,Muntanyola,muntanyola,,Barcelona,Cataluña,41.87836,2.177301,802.8712
8130,Montclar,montclar,,Barcelona,Cataluña,42.01806,1.764081,699.5048
8131,Montesquiu,montesquiu,,Barcelona,Cataluña,42.11001,2.210174,575.4601
8132,Montmajor,montmajor,,Barcelona,Cataluña,42.01777,1.735123,757.0117
8133,Montmaneu,montmaneu,,Barcelona,Cataluña,41.62574,1.414676,714.0361
8134,Figaró-Montmany,figaromontmany,,Barcelona,Cataluña,41.72169,2.273113,326.0451
8135,Montmeló,montmelo,,Barcelona,Cataluña,41.55146,2.248465,84.53434
8136,Montornès del Vallès,montornesdelvalles,,Barcelona,Cataluña,41.54255,2.263779,100.0693
8137,Montseny,montseny,,Barcelona,Cataluña,41.76001,2.394918,535.3168
8138,Moià,moia,,Barcelona,Cataluña,41.81277,2.097428,730.1093
8139,Mura,mura,,Barcelona,Cataluña,41.69948,1.976545,470.6466
8140,Navarcles,navarcles,,Barcelona,Cataluña,41.75158,1.903257,255.0479
8141,Navàs,navas,,Barcelona,Cataluña,41.90007,1.879363,371.9668
8142,"Nou de Berguedà, La",noudeberguedala,,Barcelona,Cataluña,42.16599,1.884765,865.2148
8143,Òdena,odena,,Barcelona,Cataluña,41.60673,1.640909,404.7818
8144,Olvan,olvan,,Barcelona,Cataluña,42.05732,1.905637,566.9895
8145,Olèrdola,olerdola,,Barcelona,Cataluña,41.32195,1.723056,179.9567
8146,Olesa de Bonesvalls,olesadebonesvalls,,Barcelona,Cataluña,41.35301,1.849887,273.3946
8147,Olesa de Montserrat,olesademontserrat,,Barcelona,Cataluña,41.5434,1.888153,105.909
8148,Olivella,olivella,,Barcelona,Cataluña,41.31034,1.812279,207.4666
8149,Olost,olost,,Barcelona,Cataluña,41.98582,2.095717,572.0165
8150,Orís,oris,,Barcelona,Cataluña,42.06,2.240278,570.6917
8151,Oristà,orista,,Barcelona,Cataluña,41.93243,2.060313,467.3857
8152,Orpí,orpi,,Barcelona,Cataluña,41.51867,1.575293,482.553
8153,Òrrius,orrius,,Barcelona,Cataluña,41.55499,2.355113,254.5491
8154,Pacs del Penedès,pacsdelpenedes,,Barcelona,Cataluña,41.36156,1.669417,210.873
8155,Palafolls,palafolls,,Barcelona,Cataluña,41.66497,2.749768,10.6715
8156,Palau-solità i Plegamans,palausolitaiplegamans,,Barcelona,Cataluña,41.58862,2.179233,137.2143
8157,Pallejà,palleja,,Barcelona,Cataluña,41.42372,1.996701,43.74018
8158,"Papiol, El",papiolel,,Barcelona,Cataluña,41.43895,2.010686,129.2383
8159,Parets del Vallès,paretsdelvalles,,Barcelona,Cataluña,41.57355,2.233794,97.48323
8160,Perafita,perafita,,Barcelona,Cataluña,42.0416,2.107158,753.5203
8161,Piera,piera,,Barcelona,Cataluña,41.51797,1.743268,282.576
8162,"Hostalets de Pierola, Els",hostaletsdepierolaels,,Barcelona,Cataluña,41.53416,1.765952,369.2267
8163,Pineda de Mar,pinedademar,,Barcelona,Cataluña,41.62751,2.689454,12.10963
8164,"Pla del Penedès, El",pladelpenedesel,,Barcelona,Cataluña,41.41798,1.71032,227.2813
8165,"Pobla de Claramunt, La",pobladeclaramuntla,,Barcelona,Cataluña,41.55298,1.675936,272.2743
8166,"Pobla de Lillet, La",pobladelilletla,,Barcelona,Cataluña,42.24344,1.97473,854.4056
8167,Polinyà,polinya,,Barcelona,Cataluña,41.5575,2.156243,129.1282
8168,Pontons,pontons,,Barcelona,Cataluña,41.41599,1.5167,588.9841
8169,"Prat de Llobregat, El",pratdellobregatel,,Barcelona,Cataluña,41.33047,2.093149,10.36917
8170,"Prats de Rei, Els",pratsdereiels,,Barcelona,Cataluña,41.7055,1.541531,614.0353
8171,Prats de Lluçanès,pratsdellucanes,,Barcelona,Cataluña,42.00874,2.028578,709.0973
8172,Premià de Mar,premiademar,,Barcelona,Cataluña,41.48958,2.356536,13.17984
8174,Puigdàlber,puigdalber,,Barcelona,Cataluña,41.40442,1.701116,239.9502
8175,Puig-reig,puigreig,,Barcelona,Cataluña,41.97446,1.878855,444.6947
8176,Pujalt,pujalt,,Barcelona,Cataluña,41.71723,1.422114,749.2104
8177,"Quar, La",quarla,,Barcelona,Cataluña,42.08085,1.96163,850.0149
8178,Rajadell,rajadell,,Barcelona,Cataluña,41.72972,1.706263,343.1941
8179,Rellinars,rellinars,,Barcelona,Cataluña,41.63747,1.910496,344.744
8180,Ripollet,ripollet,,Barcelona,Cataluña,41.49736,2.155674,81.84142
8181,"Roca del Vallès, La",rocadelvallesla,,Barcelona,Cataluña,41.59053,2.326258,131.0679
8182,"Pont de Vilomara i Rocafort, El",pontdevilomarairocafortel,,Barcelona,Cataluña,41.69987,1.870855,203.9381
8183,Roda de Ter,rodadeter,,Barcelona,Cataluña,41.98597,2.311212,454.8112
8184,Rubí,rubi,,Barcelona,Cataluña,41.49233,2.031262,133.4794
8185,Rubió,rubio,,Barcelona,Cataluña,41.64328,1.569087,600.4712
8187,Sabadell,sabadell,,Barcelona,Cataluña,41.54862,2.107421,198.7852
8188,Sagàs,sagas,,Barcelona,Cataluña,42.05066,1.961669,712.4318
8189,Sant Pere Sallavinera,santperesallavinera,,Barcelona,Cataluña,41.73657,1.573176,587.7723
8190,Saldes,saldes,,Barcelona,Cataluña,42.22893,1.735597,1233.967
8191,Sallent,sallent,,Barcelona,Cataluña,41.8242,1.89493,279.7943
8192,Santpedor,santpedor,,Barcelona,Cataluña,41.78357,1.839129,324.6286
8193,Sant Iscle de Vallalta,santiscledevallalta,,Barcelona,Cataluña,41.62377,2.569127,127.0
8194,Sant Adrià de Besòs,santadriadebesos,,Barcelona,Cataluña,41.4306,2.218239,18.77083
8195,Sant Agustí de Lluçanès,santagustidellucanes,,Barcelona,Cataluña,42.08546,2.127825,831.834
8196,Sant Andreu de la Barca,santandreudelabarca,,Barcelona,Cataluña,41.44718,1.975935,48.89596
8197,Sant Andreu de Llavaneres,santandreudellavaneres,,Barcelona,Cataluña,41.57237,2.482367,112.0381
8198,Sant Antoni de Vilamajor,santantonidevilamajor,,Barcelona,Cataluña,41.6737,2.400859,260.0836
8199,Sant Bartomeu del Grau,santbartomeudelgrau,,Barcelona,Cataluña,41.98076,2.175598,877.1983
8200,Sant Boi de Llobregat,santboidellobregat,,Barcelona,Cataluña,41.34739,2.043103,22.73825
8201,Sant Boi de Lluçanès,santboidellucanes,,Barcelona,Cataluña,42.05888,2.151663,807.0
8202,Sant Celoni,santceloni,,Barcelona,Cataluña,41.69019,2.49167,157.3233
8203,Sant Cebrià de Vallalta,santcebriadevallalta,,Barcelona,Cataluña,41.61977,2.600307,77.32714
8204,Sant Climent de Llobregat,santclimentdellobregat,,Barcelona,Cataluña,41.33731,1.99578,80.42606
8205,Sant Cugat del Vallès,santcugatdelvalles,,Barcelona,Cataluña,41.47186,2.082139,130.2749
8206,Sant Cugat Sesgarrigues,santcugatsesgarrigues,,Barcelona,Cataluña,41.36441,1.753613,269.0334
8207,Sant Esteve de Palautordera,santestevedepalautordera,,Barcelona,Cataluña,41.70347,2.435386,237.4874
8208,Sant Esteve Sesrovires,santestevesesrovires,,Barcelona,Cataluña,41.49455,1.872799,178.7557
8209,Sant Fost de Campsentelles,santfostdecampsentelles,,Barcelona,Cataluña,41.51452,2.234791,112.3262
8210,Sant Feliu de Codines,santfeliudecodines,,Barcelona,Cataluña,41.68893,2.164804,486.7332
8211,Sant Feliu de Llobregat,santfeliudellobregat,,Barcelona,Cataluña,41.38094,2.045171,31.72373
8212,Sant Feliu Sasserra,santfeliusasserra,,Barcelona,Cataluña,41.94477,2.02247,617.3484
8213,Sant Fruitós de Bages,santfruitosdebages,,Barcelona,Cataluña,41.74952,1.872885,261.4637
8214,Vilassar de Dalt,vilassardedalt,,Barcelona,Cataluña,41.51669,2.358552,133.6058
8215,Sant Hipòlit de Voltregà,santhipolitdevoltrega,,Barcelona,Cataluña,42.01554,2.236254,531.1494
8216,Sant Jaume de Frontanyà,santjaumedefrontanya,,Barcelona,Cataluña,42.18718,2.02394,1074.112
8217,Sant Joan Despí,santjoandespi,,Barcelona,Cataluña,41.36769,2.056065,20.53358
8218,Sant Joan de Vilatorrada,santjoandevilatorrada,,Barcelona,Cataluña,41.74549,1.805543,228.8402
8219,Vilassar de Mar,vilassardemar,,Barcelona,Cataluña,41.50181,2.390873,10.80674
8220,Sant Julià de Vilatorta,santjuliadevilatorta,,Barcelona,Cataluña,41.92231,2.324351,599.2924
8221,Sant Just Desvern,santjustdesvern,,Barcelona,Cataluña,41.38576,2.075544,122.1042
8222,Sant Llorenç d'Hortons,santllorencd'hortons,,Barcelona,Cataluña,41.46485,1.824399,216.0685
8223,Sant Llorenç Savall,santllorencsavall,,Barcelona,Cataluña,41.67982,2.05931,487.5616
8224,Sant Martí de Centelles,santmartidecentelles,,Barcelona,Cataluña,41.76633,2.20482,724.98
8225,Sant Martí d'Albars,santmartid'albars,,Barcelona,Cataluña,42.02824,2.073759,628.8278
8226,Sant Martí de Tous,santmartidetous,,Barcelona,Cataluña,41.56214,1.522934,444.6292
8227,Sant Martí Sarroca,santmartisarroca,,Barcelona,Cataluña,41.38578,1.611423,296.2319
8228,Sant Martí Sesgueioles,santmartisesgueioles,,Barcelona,Cataluña,41.7021,1.48792,646.0749
8229,Sant Mateu de Bages,santmateudebages,,Barcelona,Cataluña,41.79689,1.732737,572.9196
8230,Premià de Dalt,premiadedalt,,Barcelona,Cataluña,41.50655,2.343058,133.3237
8231,Sant Pere de Ribes,santperederibes,,Barcelona,Cataluña,41.2591,1.775418,45.06723
8232,Sant Pere de Riudebitlles,santperederiudebitlles,,Barcelona,Cataluña,41.45347,1.701628,252.1739
8233,Sant Pere de Torelló,santperedetorello,,Barcelona,Cataluña,42.07564,2.296003,621.7791
8234,Sant Pere de Vilamajor,santperedevilamajor,,Barcelona,Cataluña,41.68499,2.390498,298.7486
8235,Sant Pol de Mar,santpoldemar,,Barcelona,Cataluña,41.59945,2.615872,13.29345
8236,Sant Quintí de Mediona,santquintidemediona,,Barcelona,Cataluña,41.46383,1.666462,333.5246
8237,Sant Quirze de Besora,santquirzedebesora,,Barcelona,Cataluña,42.10094,2.216611,572.5922
8238,Sant Quirze del Vallès,santquirzedelvalles,,Barcelona,Cataluña,41.5308,2.086581,165.9138
8239,Sant Quirze Safaja,santquirzesafaja,,Barcelona,Cataluña,41.72732,2.153063,603.6134
8240,Sant Sadurní d'Anoia,santsadurnid'anoia,,Barcelona,Cataluña,41.42535,1.785673,168.4416
8241,Sant Sadurní d'Osormort,santsadurnid'osormort,,Barcelona,Cataluña,41.90321,2.381448,533.9646
8242,Marganell,marganell,,Barcelona,Cataluña,41.64039,1.792257,313.6546
8243,Santa Cecília de Voltregà,santaceciliadevoltrega,,Barcelona,Cataluña,41.99306,2.219902,522.2773
8244,Santa Coloma de Cervelló,santacolomadecervello,,Barcelona,Cataluña,41.36684,2.015083,76.92886
8245,Santa Coloma de Gramenet,santacolomadegramenet,,Barcelona,Cataluña,41.45107,2.208978,37.66038
8246,Santa Eugènia de Berga,santaeugeniadeberga,,Barcelona,Cataluña,41.9003,2.282697,536.6241
8247,Santa Eulàlia de Riuprimer,santaeulaliaderiuprimer,,Barcelona,Cataluña,41.9108,2.188852,575.5924
8248,Santa Eulàlia de Ronçana,santaeulaliaderoncana,,Barcelona,Cataluña,41.65306,2.226111,221.9401
8249,Santa Fe del Penedès,santafedelpenedes,,Barcelona,Cataluña,41.38438,1.721198,239.9169
8250,Santa Margarida de Montbui,santamargaridademontbui,,Barcelona,Cataluña,41.55719,1.604131,388.9097
8251,Santa Margarida i els Monjos,santamargaridaielsmonjos,,Barcelona,Cataluña,41.32087,1.662838,171.3222
8252,Barberà del Vallès,barberadelvalles,,Barcelona,Cataluña,41.51596,2.124723,142.2961
8253,Santa Maria de Besora,santamariadebesora,,Barcelona,Cataluña,42.12696,2.258088,871.7925
8255,Santa Maria de Merlès,santamariademerles,,Barcelona,Cataluña,42.0011,1.977791,518.8036
8256,Santa Maria de Martorelles,santamariademartorelles,,Barcelona,Cataluña,41.51955,2.25424,178.528
8257,Santa Maria de Miralles,santamariademiralles,,Barcelona,Cataluña,41.51813,1.525129,553.0007
8258,Santa Maria d'Oló,santamariad'olo,,Barcelona,Cataluña,41.87207,2.035291,515.0869
8259,Santa Maria de Palautordera,santamariadepalautordera,,Barcelona,Cataluña,41.6932,2.446227,211.9186
8260,Santa Perpètua de Mogoda,santaperpetuademogoda,,Barcelona,Cataluña,41.53486,2.178988,81.15939
8261,Santa Susanna,santasusanna,,Barcelona,Cataluña,41.64069,2.716872,50.67278
8262,Sant Vicenç de Castellet,santvicencdecastellet,,Barcelona,Cataluña,41.66581,1.863849,175.3337
8263,Sant Vicenç dels Horts,santvicencdelshorts,,Barcelona,Cataluña,41.39362,2.00987,32.74398
8264,Sant Vicenç de Montalt,santvicencdemontalt,,Barcelona,Cataluña,41.58262,2.509926,177.863
8265,Sant Vicenç de Torelló,santvicencdetorello,,Barcelona,Cataluña,42.06234,2.272757,558.8644
8266,Cerdanyola del Vallès,cerdanyoladelvalles,,Barcelona,Cataluña,41.49137,2.140769,87.2362
8267,Sentmenat,sentmenat,,Barcelona,Cataluña,41.61163,2.134932,229.8691
8268,Cercs,cercs,,Barcelona,Cataluña,42.15168,1.856175,749.4134
8269,Seva,seva,,Barcelona,Cataluña,41.83733,2.281063,672.0496
8270,Sitges,sitges,,Barcelona,Cataluña,41.23478,1.811222,9.967733
8271,Sobremunt,sobremunt,,Barcelona,Cataluña,42.03461,2.168373,881.4683
8272,Sora,sora,,Barcelona,Cataluña,42.11072,2.159851,695.3496
8273,Subirats,subirats,,Barcelona,Cataluña,41.38472,1.798056,274.2937
8274,Súria,suria,,Barcelona,Cataluña,41.83179,1.750768,284.714
8275,Tavèrnoles,tavernoles,,Barcelona,Cataluña,41.95227,2.326051,529.109
8276,Tagamanent,tagamanent,,Barcelona,Cataluña,41.73962,2.265759,348.8652
8277,Talamanca,talamanca,,Barcelona,Cataluña,41.73544,1.977921,553.4589
8278,Taradell,taradell,,Barcelona,Cataluña,41.87363,2.287192,633.068
8279,Terrassa,terrassa,,Barcelona,Cataluña,41.56095,2.01044,285.6018
8280,Tavertet,tavertet,,Barcelona,Cataluña,41.99606,2.419322,868.5259
8281,Teià,teia,,Barcelona,Cataluña,41.49969,2.320616,117.6808
8282,Tiana,tiana,,Barcelona,Cataluña,41.48324,2.26898,124.7599
8283,Tona,tona,,Barcelona,Cataluña,41.84785,2.227755,602.5104
8284,Tordera,tordera,,Barcelona,Cataluña,41.70206,2.71902,31.37682
8285,Torelló,torello,,Barcelona,Cataluña,42.04824,2.26272,507.7611
8286,"Torre de Claramunt, La",torredeclaramuntla,,Barcelona,Cataluña,41.53589,1.661657,367.9993
8287,Torrelavit,torrelavit,,Barcelona,Cataluña,41.44635,1.729874,201.7227
8288,Torrelles de Foix,torrellesdefoix,,Barcelona,Cataluña,41.3891,1.567663,380.5124
8289,Torrelles de Llobregat,torrellesdellobregat,,Barcelona,Cataluña,41.35389,1.97666,154.783
8290,Ullastrell,ullastrell,,Barcelona,Cataluña,41.52707,1.956931,314.4088
8291,Vacarisses,vacarisses,,Barcelona,Cataluña,41.60627,1.919159,406.7665
8292,Vallbona d'Anoia,vallbonad'anoia,,Barcelona,Cataluña,41.51962,1.708936,297.2954
8293,Vallcebre,vallcebre,,Barcelona,Cataluña,42.20394,1.818234,1127.919
8294,Vallgorguina,vallgorguina,,Barcelona,Cataluña,41.64832,2.509912,223.2106
8295,Vallirana,vallirana,,Barcelona,Cataluña,41.38872,1.932255,184.8448
8296,Vallromanes,vallromanes,,Barcelona,Cataluña,41.5318,2.298065,155.1461
8297,Veciana,veciana,,Barcelona,Cataluña,41.65651,1.487973,556.9959
8298,Vic,vic,,Barcelona,Cataluña,41.93029,2.25435,505.4679
8299,Vilada,vilada,,Barcelona,Cataluña,42.13676,1.931635,724.7032
8300,Viladecavalls,viladecavalls,,Barcelona,Cataluña,41.55547,1.954526,265.7476
8301,Viladecans,viladecans,,Barcelona,Cataluña,41.31601,2.020199,19.77518
8302,Vilanova del Camí,vilanovadelcami,,Barcelona,Cataluña,41.57373,1.642982,313.7972
8303,Vilanova de Sau,vilanovadesau,,Barcelona,Cataluña,41.94754,2.384898,557.92
8304,Vilobí del Penedès,vilobidelpenedes,,Barcelona,Cataluña,41.38835,1.662088,284.1465
8305,Vilafranca del Penedès,vilafrancadelpenedes,,Barcelona,Cataluña,41.34509,1.699849,230.5926
8306,Vilalba Sasserra,vilalbasasserra,,Barcelona,Cataluña,41.65272,2.441072,221.1936
8307,Vilanova i la Geltrú,vilanovailageltru,,Barcelona,Cataluña,41.22415,1.725568,25.03975
8308,Viver i Serrateix,viveriserrateix,,Barcelona,Cataluña,41.94583,1.775928,724.3826
8901,Rupit i Pruit,rupitipruit,,Barcelona,Cataluña,42.02406,2.465066,843.8084
8902,Vilanova del Vallès,vilanovadelvalles,,Barcelona,Cataluña,41.55407,2.288895,92.16563
8903,Sant Julià de Cerdanyola,santjuliadecerdanyola,,Barcelona,Cataluña,42.22306,1.891119,967.7538
8904,Badia del Vallès,badiadelvalles,,Barcelona,Cataluña,41.50871,2.114864,122.4438
8905,"Palma de Cervelló, La",palmadecervellola,,Barcelona,Cataluña,41.41331,1.967154,110.9084
9001,Abajas,abajas,,Burgos,Castilla León,42.62347,-3.580227,837.949
9003,Adrada de Haza,adradadehaza,,Burgos,Castilla León,41.59426,-3.821794,824.687
9006,Aguas Cándidas,aguascandidas,,Burgos,Castilla León,42.71609,-3.501816,712.041
9007,Aguilar de Bureba,aguilardebureba,,Burgos,Castilla León,42.59014,-3.328738,689.226
9009,Albillos,albillos,,Burgos,Castilla León,42.27642,-3.790607,832.9681
9010,Alcocero de Mola,alcocerodemola,,Burgos,Castilla León,42.47314,-3.357422,799.6028
9011,Alfoz de Bricia,alfozdebricia,,Burgos,Castilla León,42.89667,-3.879167,847.3563
9012,Alfoz de Santa Gadea,alfozdesantagadea,,Burgos,Castilla León,42.95555,-3.950556,882.3184
9013,Altable,altable,,Burgos,Castilla León,42.60335,-3.077159,711.29
9014,"Altos, Los",altoslos,,Burgos,Castilla León,42.80861,-3.631667,1026.667
9016,Ameyugo,ameyugo,,Burgos,Castilla León,42.65606,-3.061546,553.5253
9017,Anguix,anguix,,Burgos,Castilla León,41.75338,-3.931955,814.4943
9018,Aranda de Duero,arandadeduero,,Burgos,Castilla León,41.67171,-3.686569,805.1658
9019,Arandilla,arandilla,,Burgos,Castilla León,41.73776,-3.428753,885.0873
9020,Arauzo de Miel,arauzodemiel,,Burgos,Castilla León,41.86012,-3.38779,1003.22
9021,Arauzo de Salce,arauzodesalce,,Burgos,Castilla León,41.81974,-3.412258,944.5539
9022,Arauzo de Torre,arauzodetorre,,Burgos,Castilla León,41.79853,-3.422723,922.907
9023,Arcos,arcos,,Burgos,Castilla León,42.26453,-3.755465,851.1382
9024,Arenillas de Riopisuerga,arenillasderiopisuerga,,Burgos,Castilla León,42.35673,-4.233235,788.459
9025,Arija,arija,,Burgos,Castilla León,42.99424,-3.944695,844.3306
9026,Arlanzón,arlanzon,,Burgos,Castilla León,42.3228,-3.458243,995.9109
9027,Arraya de Oca,arrayadeoca,,Burgos,Castilla León,42.41536,-3.397841,926.2366
9029,Atapuerca,atapuerca,,Burgos,Castilla León,42.37701,-3.507772,953.9974
9030,"Ausines, Los",ausineslos,,Burgos,Castilla León,42.22558,-3.597602,914.6774
9032,Avellanosa de Muñó,avellanosademuno,,Burgos,Castilla León,41.98373,-3.824701,870.7616
9033,Bahabón de Esgueva,bahabondeesgueva,,Burgos,Castilla León,41.86199,-3.729234,916.0064
9034,"Balbases, Los",balbaseslos,,Burgos,Castilla León,42.215,-4.062593,811.7905
9035,Baños de Valdearados,banosdevaldearados,,Burgos,Castilla León,41.76987,-3.556313,870.1116
9036,Bañuelos de Bureba,banuelosdebureba,,Burgos,Castilla León,42.50111,-3.280796,784.2388
9037,Barbadillo de Herreros,barbadillodeherreros,,Burgos,Castilla León,42.21489,-3.150055,1408.983
9038,Barbadillo del Mercado,barbadillodelmercado,,Burgos,Castilla León,42.03931,-3.358344,955.1722
9039,Barbadillo del Pez,barbadillodelpez,,Burgos,Castilla León,42.11964,-3.228537,1053.858
9041,Barrio de Muñó,barriodemuno,,Burgos,Castilla León,42.17502,-4.007208,782.927
9043,"Barrios de Bureba, Los",barriosdeburebalos,,Burgos,Castilla León,42.64565,-3.391559,631.6701
9044,Barrios de Colina,barriosdecolina,,Burgos,Castilla León,42.39611,-3.459788,964.8784
9045,Basconcillos del Tozo,basconcillosdeltozo,,Burgos,Castilla León,42.70267,-3.989552,910.5488
9046,Bascuñana,bascunana,,Burgos,Castilla León,42.42544,-3.082017,800.0485
9047,Belbimbre,belbimbre,,Burgos,Castilla León,42.16871,-4.012369,793.7833
9048,Belorado,belorado,,Burgos,Castilla León,42.42041,-3.189796,773.8459
9050,Berberana,berberana,,Burgos,Castilla León,42.91988,-3.060073,620.4984
9051,Berlangas de Roa,berlangasderoa,,Burgos,Castilla León,41.6894,-3.87417,781.4107
9052,Berzosa de Bureba,berzosadebureba,,Burgos,Castilla León,42.62693,-3.266128,679.3917
9054,Bozoó,bozoo,,Burgos,Castilla León,42.72657,-3.08537,572.3182
9055,Brazacorta,brazacorta,,Burgos,Castilla León,41.71716,-3.367153,909.0886
9056,Briviesca,briviesca,,Burgos,Castilla León,42.55029,-3.323369,725.0
9057,Bugedo,bugedo,,Burgos,Castilla León,42.64932,-3.017947,533.7709
9058,Buniel,buniel,,Burgos,Castilla León,42.30971,-3.823738,819.815
9059,Burgos,burgos,,Burgos,Castilla León,42.34087,-3.699731,865.8016
9060,Busto de Bureba,bustodebureba,,Burgos,Castilla León,42.65941,-3.264715,708.1784
9061,Cabañes de Esgueva,cabanesdeesgueva,,Burgos,Castilla León,41.8313,-3.785393,885.2454
9062,Cabezón de la Sierra,cabezondelasierra,,Burgos,Castilla León,41.93455,-3.242159,1016.805
9063,Cavia,cavia,,Burgos,Castilla León,42.28385,-3.845257,815.5443
9064,Caleruega,caleruega,,Burgos,Castilla León,41.82503,-3.486718,955.7069
9065,Campillo de Aranda,campillodearanda,,Burgos,Castilla León,41.61026,-3.730296,912.9706
9066,Campolara,campolara,,Burgos,Castilla León,42.11951,-3.427225,971.9648
9067,Canicosa de la Sierra,canicosadelasierra,,Burgos,Castilla León,41.93606,-3.042048,1130.863
9068,Cantabrana,cantabrana,,Burgos,Castilla León,42.73465,-3.4672,636.0662
9070,Carazo,carazo,,Burgos,Castilla León,41.96952,-3.353925,1127.545
9071,Carcedo de Bureba,carcedodebureba,,Burgos,Castilla León,42.5783,-3.498399,751.9003
9072,Carcedo de Burgos,carcedodeburgos,,Burgos,Castilla León,42.2861,-3.623026,989.6016
9073,Cardeñadijo,cardenadijo,,Burgos,Castilla León,42.2997,-3.665262,899.719
9074,Cardeñajimeno,cardenajimeno,,Burgos,Castilla León,42.33102,-3.621846,924.9677
9075,Cardeñuela Riopico,cardenuelariopico,,Burgos,Castilla León,42.35997,-3.55778,926.5973
9076,Carrias,carrias,,Burgos,Castilla León,42.4817,-3.283208,821.5297
9077,Cascajares de Bureba,cascajaresdebureba,,Burgos,Castilla León,42.67904,-3.237395,802.5067
9078,Cascajares de la Sierra,cascajaresdelasierra,,Burgos,Castilla León,42.06187,-3.39957,927.9459
9079,Castellanos de Castro,castellanosdecastro,,Burgos,Castilla León,42.32857,-4.03372,873.9877
9082,Castildelgado,castildelgado,,Burgos,Castilla León,42.43724,-3.084511,768.4348
9083,Castil de Peones,castildepeones,,Burgos,Castilla León,42.48307,-3.38459,790.1807
9084,Castrillo de la Reina,castrillodelareina,,Burgos,Castilla León,41.98731,-3.237118,978.027
9085,Castrillo de la Vega,castrillodelavega,,Burgos,Castilla León,41.65073,-3.781646,808.438
9086,Castrillo del Val,castrillodelval,,Burgos,Castilla León,42.31421,-3.584872,942.9785
9088,Castrillo de Riopisuerga,castrilloderiopisuerga,,Burgos,Castilla León,42.51493,-4.252292,816.8545
9091,Castrojeriz,castrojeriz,,Burgos,Castilla León,42.28828,-4.138836,816.0674
9093,Cayuela,cayuela,,Burgos,Castilla León,42.27256,-3.819528,821.8987
9094,Cebrecos,cebrecos,,Burgos,Castilla León,41.9832,-3.596634,950.4548
9095,Celada del Camino,celadadelcamino,,Burgos,Castilla León,42.26265,-3.933845,796.4451
9098,Cerezo de Río Tirón,cerezoderiotiron,,Burgos,Castilla León,42.49125,-3.135633,650.4071
9100,Cerratón de Juarros,cerratondejuarros,,Burgos,Castilla León,42.42218,-3.373947,959.26
9101,Ciadoncha,ciadoncha,,Burgos,Castilla León,42.1606,-3.9348,789.7081
9102,Cillaperlata,cillaperlata,,Burgos,Castilla León,42.78268,-3.358483,540.39
9103,Cilleruelo de Abajo,cilleruelodeabajo,,Burgos,Castilla León,41.88422,-3.795598,915.1015
9104,Cilleruelo de Arriba,cilleruelodearriba,,Burgos,Castilla León,41.90474,-3.660519,966.1483
9105,Ciruelos de Cervera,ciruelosdecervera,,Burgos,Castilla León,41.90557,-3.530057,1019.25
9108,Cogollos,cogollos,,Burgos,Castilla León,42.20072,-3.699386,887.1991
9109,Condado de Treviño,condadodetrevino,,Burgos,Castilla León,42.7349,-2.74691,561.0759
9110,Contreras,contreras,,Burgos,Castilla León,42.02149,-3.410147,1023.346
9112,Coruña del Conde,corunadelconde,,Burgos,Castilla León,41.76587,-3.391761,907.8076
9113,Covarrubias,covarrubias,,Burgos,Castilla León,42.05919,-3.520237,895.1803
9114,Cubillo del Campo,cubillodelcampo,,Burgos,Castilla León,42.16857,-3.610348,991.9786
9115,Cubo de Bureba,cubodebureba,,Burgos,Castilla León,42.64042,-3.206735,685.0
9117,"Cueva de Roa, La",cuevaderoala,,Burgos,Castilla León,41.66653,-3.939688,768.5865
9119,Cuevas de San Clemente,cuevasdesanclemente,,Burgos,Castilla León,42.12992,-3.568581,1030.792
9120,Encío,encio,,Burgos,Castilla León,42.66777,-3.084554,588.3317
9122,Espinosa de Cervera,espinosadecervera,,Burgos,Castilla León,41.89632,-3.468393,1030.725
9123,Espinosa del Camino,espinosadelcamino,,Burgos,Castilla León,42.40644,-3.281149,894.847
9124,Espinosa de los Monteros,espinosadelosmonteros,,Burgos,Castilla León,43.07687,-3.552301,753.3468
9125,Estépar,estepar,,Burgos,Castilla León,42.2767,-3.89849,810.9069
9127,Fontioso,fontioso,,Burgos,Castilla León,41.94261,-3.739049,959.9049
9128,Frandovínez,frandovinez,,Burgos,Castilla León,42.30937,-3.838241,823.8157
9129,Fresneda de la Sierra Tirón,fresnedadelasierratiron,,Burgos,Castilla León,42.31503,-3.13507,983.1557
9130,Fresneña,fresnena,,Burgos,Castilla León,42.41425,-3.134803,843.5111
9131,Fresnillo de las Dueñas,fresnillodelasduenas,,Burgos,Castilla León,41.64692,-3.644559,803.7737
9132,Fresno de Río Tirón,fresnoderiotiron,,Burgos,Castilla León,42.4602,-3.17496,706.4641
